~VERSION INFORMATION
VERS.           2.0   :CWLS Log ASCII Standard - VERSION 2.0
WRAP.           NO    :One Line per depth step
PROD.  Schlumberger   :LAS Producer
PROG.  DLIS to ASCII 19C2-270                          :LAS Program name and version
CREA.        2017/01/08 14:29                          :LAS Creation date {YYYY/MM/DD hh:mm}
DLIS_CREA.  2017-Jan-08 14:00                          :DLIS Creation date and time {YYYY-MMM-DD hh:mm}
SOURCE.     BDN-A1_12.25inch_S2R2_FMI-08-Jan-2017_Main.dlis  :DLIS File Name
FILE-ID.     ConCu_R05_L003Up_FBST                     :File Identification Number
#--------------------------------------------------
~WELL INFORMATION
#MNEM.UNIT      DATA             DESCRIPTION
#---- ------ --------------   -----------------------------
STRT .M      1316.0000       :START DEPTH     
STOP .M      2159.0000       :STOP DEPTH     
STEP .M       1.0000         :STEP     
NULL .          -999.25      :NULL VALUE
COMP .        PT. Pertamina Geothermal Energy          :COMPANY
WELL .        BDN-A/1                                  :WELL
FLD  .        Bukit Daun                               :FIELD
LOC  .        Bukit Daun                               :LOCATION
CNTY .        N-110 M1/18                              :COUNTY
STAT .        Bengkulu                                 :STATE
CTRY .        Indonesia                                :COUNTRY
API  .                                                 :API NUMBER
UWI  .                                                 :UNIQUE WELL ID
DATE .        08-Jan-2017                              :LOG DATE {DD-MMM-YYYY}
SRVC .        Schlumberger                             :SERVICE COMPANY
LATI .DEG     3° 21' 20.38" S                          :LATITUDE
LONG .DEG     102° 22' 17.32" E                        :LONGITUDE
GDAT .                                                 :GeoDetic Datum
#-----------------------------------------------------------------------------
~PARAMETER INFORMATION
#MNEM.UNIT    VALUE                      DESCRIPTION
#---- -----   --------------------       ------------------------
RUN  .          S2R2                     :RUN NUMBER
PDAT .        MSL                        :Permanent Datum
EPD  .C3           0.000000              :Elevation of Permanent Datum above Mean Sea Level
LMF  .          DF                       :Logging Measured From (Name of Logging Elevation Reference)
APD  .M         1748.500000              :Elevation of Depth Reference (LMF) above Permanent Datum
#-----------------------------------------------------------------------------
~CURVE INFORMATION
#MNEM.UNIT   API CODE                                  DESCRIPTION
#---- -----  --------                                  -----------------------
DEPT .M                                                :DEPTH (BOREHOLE) {F10.4}
ANOR .M/S2                                             :Acceleration Computed Norm (vector length) {F13.4}
AX   .M/S2                                             :Acceleration X-Axis {F13.4}
AY   .M/S2                                             :Acceleration Y-Axis {F13.4}
AZ   .M/S2                                             :Acceleration Z-Axis {F13.4}
FINC .DEG                                              :Magnetic Field Inclination {F13.4}
FNOR .OER                                              :Magnetic Field Intensity Computed Norm {F13.4}
FX   .OER                                              :Magnetometer X-Axis {F13.4}
FY   .OER                                              :Magnetometer Y-Axis {F13.4}
FZ   .OER                                              :Magnetometer Z-Axis {F13.4}
GR_EDTC.GAPI                                           :Gamma Ray {F13.4}
HAZI .DEG                                              :Hole Azimuth Relative to True North {F13.4}
P1AZ .DEG                                              :Pad 1 Azimuth in Horizontal Plane (0 = True North) {F13.4}
PP   .                                                 :Pad Pressure {F13.4}
RB   .DEG                                              :Relative Bearing {F13.4}
TENS .LBF                                              :Cable Tension {F13.4}
TVD  .M                                                :True Vertical Depth {F13.4}
#-----------------------------------------------------------------------------
# 
#     DEPT        ANOR         AX           AY           AZ           FINC         FNOR         FX           FY           FZ         GR_EDTC        HAZI         P1AZ         PP           RB           TENS         TVD
#
~A  
# ...
 2093.0000       9.7828      -6.3843      -0.8675       7.4974     -24.5076       0.4210      -0.1201       0.2680      -0.3033      25.1201     226.4201     216.7144      19.6096     352.6417    3670.9575    1724.7361
 2094.0000       9.7818      -6.3436      -0.5611       7.6008     -24.0491       0.4278      -0.1110       0.2765      -0.3017      20.6436     226.5221     220.2444      20.0641     355.2490    3646.5416    1725.4910
 2095.0000       9.7833      -6.4889      -0.0838       7.2255     -24.0697       0.4253      -0.0891       0.2805      -0.3114      19.4666     226.6918     226.2424      20.4461     359.6602    3587.5603    1726.2595
 2096.0000       9.7816      -6.2760      -0.1642       7.2402     -23.7256       0.4189      -0.0946       0.2748      -0.3010      19.1044     226.9885     225.6876      18.5079     359.0164    3794.1247    1727.0253
 2097.0000       9.7827      -6.3915      -0.2165       7.3680     -23.7215       0.4241      -0.1012       0.2860      -0.3054      14.6476     227.3373     224.2754      19.9163     357.6827    3569.6256    1727.7926
 2098.0000       9.7828      -6.3862       0.1306       7.3853     -24.4665       0.4217      -0.0742       0.2805      -0.3010      25.7867     227.3046     229.3749      18.2857       1.5673    3553.2637    1728.5474
 2099.0000       9.7813      -6.3413       0.0038       7.4823     -23.2071       0.4285      -0.1005       0.2935      -0.3061      23.1632     226.5002     228.0347      18.2086       1.1637    3552.0010    1729.3273
 2100.0000       9.7831      -6.0693      -1.9213       7.4962     -23.3540       0.4276      -0.1830       0.2353      -0.3105      14.6535     225.2944     201.6164      19.4843     341.5955    3565.3466    1730.0853
 2101.0000       9.7853      -6.0802      -1.8036       6.9863     -23.6238       0.4242      -0.1637       0.2485      -0.2959      17.9327     226.2785     206.4886      18.6306     344.7304    3544.5413    1730.8464
 2102.0000       9.7814      -6.2939      -1.2341       7.2400     -23.2300       0.4339      -0.1631       0.2655      -0.3158      22.6869     225.8701     209.0556      19.4235     347.0947    3561.7149    1731.6191
 2103.0000       9.7841      -6.2048      -1.4903       7.4004     -24.0244       0.4277      -0.1558       0.2353      -0.3165      16.7819     224.8294     206.4788      18.4669     345.8792    3573.3219    1732.3923
 2104.0000       9.7831      -6.2180      -1.4905       7.4490     -24.1232       0.4248      -0.1543       0.2522      -0.3061      18.8420     225.3700     209.2093      19.7718     347.6022    3567.2223    1733.1583
 2105.0000       9.7825      -6.2439      -1.4561       7.4479     -23.9057       0.4241      -0.1555       0.2512      -0.3127      17.1754     225.8120     207.4663      19.5812     345.9009    3586.3920    1733.9331
 2106.0000       9.7821      -6.3392      -0.7841       7.4122     -24.0129       0.4223      -0.1238       0.2618      -0.3040      30.4475     225.8572     215.8581      18.5010     352.3916    3596.1307    1734.6922
 2107.0000       9.7826      -6.3780      -0.4441       7.5543     -24.1309       0.4269      -0.1181       0.2764      -0.3153      43.9491     225.8241     219.3468      18.6623     355.0800    3599.9527    1735.4613
 2108.0000       9.7821      -6.4115      -0.1172       7.3260     -24.7113       0.4241      -0.0919       0.2726      -0.3103      17.1335     225.7320     224.6585      19.5673     359.1854    3541.3115    1736.2247
 2109.0000       9.7829      -6.3579      -0.2360       7.4339     -24.6744       0.4224      -0.0994       0.2697      -0.3104      11.8940     225.4485     222.6462      19.3535     357.8729    3551.3161    1736.9949
 2110.0000       9.7849      -6.3764      -0.1627       7.4800     -24.1731       0.4229      -0.0956       0.2728      -0.3042      21.0028     226.0602     223.4584      19.1167     358.0254    3611.2454    1737.7759
 2111.0000       9.7819      -6.3689      -0.3654       7.3086     -23.1458       0.4321      -0.1102       0.2802      -0.3030      21.2642     226.3952     222.6551      17.6035     357.1609    3590.7474    1738.5407
 2112.0000       9.7836      -6.2940      -1.0021       7.5449     -23.1608       0.4357      -0.1472       0.2675      -0.3150      14.0285     225.8397     213.7386      19.6668     350.7605    3617.5204    1739.3199
 2113.0000       9.7834      -6.2635      -1.1410       7.1200     -24.1445       0.4323      -0.1381       0.2655      -0.3109      16.7064     226.1230     213.7160      18.8596     350.5275    3617.4928    1740.0755
 2114.0000       9.7838      -6.2839      -1.1557       7.4947     -23.9894       0.4307      -0.1416       0.2581      -0.3157      14.5436     225.8569     212.5828      19.5652     349.8595    3622.7108    1740.8505
 2115.0000       9.7812      -6.3595      -0.6299       7.2675     -22.9096       0.4288      -0.1306       0.2718      -0.3051      22.7854     225.5206     216.2618      18.2421     352.9568    3609.9492    1741.6214
 2116.0000       9.7823      -6.3616      -0.5579       7.4766     -22.8670       0.4278      -0.1205       0.2753      -0.3010      31.5018     225.7882     220.8495      19.4425     356.2497    3544.2868    1742.3880
 2117.0000       9.7828      -6.3324      -0.5960       7.4833     -23.4110       0.4357      -0.1251       0.2904      -0.3156      21.3867     225.7830     219.6782      19.8718     355.3590    3581.7951    1743.1675
 2118.0000       9.7826      -6.3473      -0.2961       7.4338     -23.3902       0.4424      -0.1150       0.2809      -0.3134      15.8678     225.2622     222.3170      18.4542     357.7620    3629.1069    1743.9353
 2119.0000       9.7825      -6.4103      -0.3240       7.1894     -23.6591       0.4440      -0.1247       0.2817      -0.3226      16.4302     225.2420     219.2303      19.5141     355.4253    3539.6172    1744.7028
 2120.0000       9.7844      -6.3329      -0.2814       7.5321     -23.6904       0.4355      -0.1046       0.2727      -0.3127      18.2819     225.5378     223.4622      19.2299     358.4213    3596.8391    1745.4812
 2121.0000       9.7823      -6.2779      -0.9647       7.5223     -22.4895       0.4410      -0.1506       0.2677      -0.3116      31.3137     225.4791     214.4650      19.2676     351.5779    3640.8752    1746.2543
 2122.0000       9.7829      -6.3300      -0.5357       7.4632     -22.0891       0.4452      -0.1348       0.2807      -0.3200      51.1796     225.4194     218.7235      18.1262     354.8963    3620.8332    1747.0298
 2123.0000       9.7832      -6.3100      -0.5702       7.4435     -22.5865       0.4431      -0.1415       0.2806      -0.3146      63.4037     225.1308     217.0268      17.2259     353.8116    3602.6799    1747.8026
 2124.0000       9.7821      -6.2986      -0.6264       7.4309     -24.1158       0.4404      -0.1236       0.2745      -0.3206      39.1360     225.2534     218.7759      17.5883     355.0542    3585.1389    1748.5711
 2125.0000       9.7846      -6.2504      -0.9129       7.5134     -24.4782       0.4392      -0.1355       0.2691      -0.3195      45.3573     225.7126     214.4164      16.6732     351.3378    3601.1562    1749.3481
 2126.0000       9.7830      -6.2623      -0.8119       7.4882     -24.3901       0.4395      -0.1320       0.2708      -0.3193      43.9459     225.6789     215.8775      17.3185     352.4875    3618.8761    1750.1204
 2127.0000       9.7843      -6.2432      -0.8108       7.5086     -24.2559       0.4399      -0.1370       0.2688      -0.3194      48.5389     225.1825     216.0026      16.3735     352.9561    3614.0447    1750.8865
 2128.0000       9.7836      -6.0324      -1.8285       7.3522     -24.4272       0.4405      -0.1789       0.2381      -0.3246      23.4198     224.5288     202.9478      17.7496     343.1569    3559.8438    1751.6579
 2129.0000       9.7845      -6.1411      -1.4129       7.3783     -24.3279       0.4430      -0.1641       0.2512      -0.3263      33.5351     224.3440     207.5130      18.0004     346.9754    3605.0606    1752.4326
