~VERSION INFORMATION
VERS.           2.0   :CWLS Log ASCII Standard - VERSION 2.0
WRAP.           NO    :One Line per depth step
PROD.  Schlumberger   :LAS Producer
PROG.  DLIS to ASCII 19C2-270                          :LAS Program name and version
CREA.        2017/01/08 14:29                          :LAS Creation date {YYYY/MM/DD hh:mm}
DLIS_CREA.  2017-Jan-08 14:00                          :DLIS Creation date and time {YYYY-MMM-DD hh:mm}
SOURCE.     BDN-A1_12.25inch_S2R2_FMI-08-Jan-2017_Main.dlis  :DLIS File Name
FILE-ID.     ConCu_R05_L003Up_FBST                     :File Identification Number
#--------------------------------------------------
~WELL INFORMATION
#MNEM.UNIT      DATA             DESCRIPTION
#---- ------ --------------   -----------------------------
STRT .M      1316.0000       :START DEPTH     
STOP .M      2159.0000       :STOP DEPTH     
STEP .M       1.0000         :STEP     
NULL .          -999.25      :NULL VALUE
COMP .        PT. Pertamina Geothermal Energy          :COMPANY
WELL .        BDN-A/1                                  :WELL
FLD  .        Bukit Daun                               :FIELD
LOC  .        Bukit Daun                               :LOCATION
CNTY .        N-110 M1/18                              :COUNTY
STAT .        Bengkulu                                 :STATE
CTRY .        Indonesia                                :COUNTRY
API  .                                                 :API NUMBER
UWI  .                                                 :UNIQUE WELL ID
DATE .        08-Jan-2017                              :LOG DATE {DD-MMM-YYYY}
SRVC .        Schlumberger                             :SERVICE COMPANY
LATI .DEG     3° 21' 20.38" S                          :LATITUDE
LONG .DEG     102° 22' 17.32" E                        :LONGITUDE
GDAT .                                                 :GeoDetic Datum
#-----------------------------------------------------------------------------
~PARAMETER INFORMATION
#MNEM.UNIT    VALUE                      DESCRIPTION
#---- -----   --------------------       ------------------------
RUN  .          S2R2                     :RUN NUMBER
PDAT .        MSL                        :Permanent Datum
EPD  .C3           0.000000              :Elevation of Permanent Datum above Mean Sea Level
LMF  .          DF                       :Logging Measured From (Name of Logging Elevation Reference)
APD  .M         1748.500000              :Elevation of Depth Reference (LMF) above Permanent Datum
#-----------------------------------------------------------------------------
~CURVE INFORMATION
#MNEM.UNIT   API CODE                                  DESCRIPTION
#---- -----  --------                                  -----------------------
DEPT .M                                                :DEPTH (BOREHOLE) {F10.4}
ANOR .M/S2                                             :Acceleration Computed Norm (vector length) {F13.4}
AX   .M/S2                                             :Acceleration X-Axis {F13.4}
AY   .M/S2                                             :Acceleration Y-Axis {F13.4}
AZ   .M/S2                                             :Acceleration Z-Axis {F13.4}
FINC .DEG                                              :Magnetic Field Inclination {F13.4}
FNOR .OER                                              :Magnetic Field Intensity Computed Norm {F13.4}
FX   .OER                                              :Magnetometer X-Axis {F13.4}
FY   .OER                                              :Magnetometer Y-Axis {F13.4}
FZ   .OER                                              :Magnetometer Z-Axis {F13.4}
GR_EDTC.GAPI                                           :Gamma Ray {F13.4}
HAZI .DEG                                              :Hole Azimuth Relative to True North {F13.4}
P1AZ .DEG                                              :Pad 1 Azimuth in Horizontal Plane (0 = True North) {F13.4}
PP   .                                                 :Pad Pressure {F13.4}
RB   .DEG                                              :Relative Bearing {F13.4}
TENS .LBF                                              :Cable Tension {F13.4}
TVD  .M                                                :True Vertical Depth {F13.4}
#-----------------------------------------------------------------------------
# 
#     DEPT        ANOR         AX           AY           AZ           FINC         FNOR         FX           FY           FZ         GR_EDTC        HAZI         P1AZ         PP           RB           TENS         TVD
#
~A  
# ...
 2019.0000       9.7830      -6.3429      -1.6704       7.7153     -23.8003       0.4285      -0.1614       0.2490      -0.3105      34.1267     226.8478     205.0574      17.1288     343.3525    3501.6441    1668.3444
 2020.0000       9.7815      -6.4393      -0.7723       6.2874     -23.7925       0.4325      -0.1179       0.2798      -0.3053      41.1421     227.6130     217.4357      17.8219     352.3463    3333.0885    1669.0734
 2021.0000       9.7854      -6.4737      -0.4908       7.2396     -24.2614       0.4406      -0.1014       0.2909      -0.3139      37.6579     227.2862     223.4762      17.9562     357.1410    3481.2050    1669.8255
 2022.0000       9.7814      -6.6025      -0.1672       7.0354     -24.2087       0.4436      -0.1055       0.2879      -0.3256      31.3308     226.5463     222.4726      16.4115     356.9421    3490.2128    1670.5729
 2023.0000       9.7825      -6.4187      -0.3053       7.3480     -23.8942       0.4393      -0.1004       0.2889      -0.3137      48.7683     227.2775     223.7765      17.5170     357.3725    3549.5071    1671.3395
 2024.0000       9.7840      -6.4823      -0.2492       7.3799     -23.7407       0.4384      -0.0976       0.2939      -0.3160      39.6380     227.5756     224.5893      16.9727     357.7592    3523.0303    1672.0954
 2025.0000       9.7830      -6.4725      -0.4139       7.3420     -24.0125       0.4367      -0.1025       0.2865      -0.3098      78.8788     227.5514     222.3533      17.4788     356.0991    3515.2678    1672.8515
 2026.0000       9.7830      -6.4469      -0.5873       7.4457     -24.0031       0.4360      -0.1122       0.2823      -0.3101      78.5169     227.1836     221.6382      16.6358     355.8390    3540.5656    1673.6132
 2027.0000       9.7848      -6.3798      -1.2305       7.4302     -24.4252       0.4344      -0.1283       0.2668      -0.3128      81.1653     226.7499     214.3964      16.6839     350.6815    3526.3515    1674.3630
 2028.0000       9.7867      -6.2095      -1.8410       7.2185     -24.6209       0.4322      -0.1613       0.2482      -0.3143      81.1112     226.7177     206.0169      16.9694     344.1915    3502.1305    1675.1143
 2029.0000       9.7833      -6.2361      -1.7275       7.4431     -24.7239       0.4285      -0.1549       0.2483      -0.3102      60.4099     226.5794     206.6033      16.4364     344.7588    3494.8758    1675.8816
 2030.0000       9.7843      -6.4251      -0.8336       7.3366     -24.8393       0.4284      -0.1173       0.2704      -0.3106      75.1120     226.6805     210.6462      17.6641     347.8340    3517.1039    1676.6289
 2031.0000       9.7820      -6.4898      -0.2298       7.2877     -24.7906       0.4299      -0.0920       0.2787      -0.3141      81.1390     226.5451     223.5201      16.9614     357.7320    3498.6437    1677.3982
 2032.0000       9.7811      -6.2665      -1.0439       6.1563     -24.6108       0.4321      -0.1276       0.2690      -0.3133      63.8175     226.6644     216.5018      18.1495     352.3459    3377.7668    1678.1383
 2033.0000       9.7823      -6.4887      -0.3109       7.1488     -24.6001       0.4330      -0.0980       0.2801      -0.3141      28.5144     226.8570     222.3720      17.1238     356.6337    3503.1825    1678.9129
 2034.0000       9.7831      -6.4582      -0.2299       7.4792     -24.4526       0.4327      -0.0935       0.2845      -0.3114      23.4090     227.0132     224.7813      18.3613     358.3262    3564.4086    1679.6670
 2035.0000       9.7825      -6.3157       0.0644       7.3894     -24.0103       0.4332      -0.0982       0.2842      -0.3113      23.2165     227.3204     222.7738      16.9929     356.5897    3465.4567    1680.4237
 2036.0000       9.7833      -6.4718       0.0182       7.5207     -23.7857       0.4367      -0.0873       0.2986      -0.3019      21.2780     227.8251     227.6816      17.8016     208.7114    3559.7894    1681.1890
 2037.0000       9.7815      -6.4330      -0.5679       6.4946     -24.7051       0.4409      -0.1064       0.2844      -0.3173      24.4284     227.3195     220.7987      18.3803     355.1056    3440.4422    1681.9252
 2038.0000       9.7829      -6.4785      -0.8893       7.7716     -25.1063       0.4387      -0.1193       0.2749      -0.3239      28.1841     226.6666     218.1489      17.5847     353.5960    3575.1350    1682.7164
 2039.0000       9.7833      -6.4316      -0.6833       6.7132     -24.9542       0.4340      -0.1116       0.2744      -0.3148      25.8386     226.6462     218.9809      18.1707     354.2399    3493.8270    1683.4474
 2040.0000       9.7833      -6.4071      -0.9847       7.3745     -24.5606       0.4347      -0.1291       0.2674      -0.3178      29.1071     226.1119     214.9360      18.3933     351.5803    3550.6275    1684.2351
 2041.0000       9.7809      -6.4540      -0.5119       7.2872     -24.6984       0.4362      -0.1079       0.2791      -0.3200      25.0665     226.2261     219.6418      18.3179     355.0582    3528.9127    1685.0064
 2042.0000       9.7828      -6.4071      -1.0256       7.4170     -25.1683       0.4360      -0.1264       0.2676      -0.3208      26.6350     226.2987     214.2951      18.1468     350.9508    3556.3635    1685.7691
 2043.0000       9.7818      -6.4191      -0.9085       7.2766     -25.3376       0.4363      -0.1168       0.2712      -0.3203      24.3903     226.5458     216.1236      17.7675     352.1535    3481.7984    1686.5395
 2044.0000       9.7826      -6.4321      -0.8780       7.2579     -25.1028       0.4387      -0.1190       0.2765      -0.3180      21.3836     226.8509     217.7830      18.3264     353.1797    3563.0209    1687.2888
 2045.0000       9.7834      -6.4337      -0.9754       7.0799     -25.1077       0.4312      -0.1175       0.2745      -0.3105      22.1013     227.6185     216.5809      17.4855     351.6872    3506.4756    1688.0343
 2046.0000       9.7831      -6.4701      -0.5743       7.0492     -24.9422       0.4276      -0.0973       0.2841      -0.3042      31.2306     228.0510     222.5112      17.8574     355.8420    3511.6814    1688.8047
 2047.0000       9.7827      -6.4615      -0.5609       7.3556     -25.0637       0.4342      -0.1111       0.2713      -0.3202      17.9728     226.1699     218.1265      17.9831     353.9514    3564.4424    1689.5878
 2048.0000       9.7834      -6.4313      -0.6852       7.4845     -25.1376       0.4352      -0.1118       0.2733      -0.3199      25.4339     225.9744     217.8440      17.8161     353.8841    3549.1927    1690.3458
 2049.0000       9.7831      -6.4589      -0.4277       7.3736     -25.1385       0.4362      -0.1017       0.2788      -0.3195      43.4870     226.2407     221.4351      17.3827     356.3916    3530.0407    1691.1224
 2050.0000       9.7835      -6.4664      -0.2741       7.2818     -25.2065       0.4371      -0.0925       0.2833      -0.3199      45.0299     226.4520     223.6477      14.5512     357.8957    3539.4277    1691.8781
 2051.0000       9.7841      -6.4039      -1.0563       7.1752     -25.2206       0.4363      -0.1019       0.2799      -0.3196      62.9897     226.5000     220.3234      16.6767     355.3545    3562.4663    1692.6272
 2052.0000       9.7818      -6.4766      -0.1118       7.3989     -25.1880       0.4356      -0.0860       0.2839      -0.3188      66.3735     226.4809     225.3618      16.1797     359.1601    3503.2718    1693.3981
 2053.0000       9.7816      -6.4723       0.0838       7.4796     -25.1524       0.4357      -0.0790       0.2856      -0.3198      70.4325     226.3750     227.2394      16.5003       0.6486    3530.3755    1694.1715
 2054.0000       9.7831      -6.4746       0.0951       7.0273     -25.1079       0.4361      -0.0772       0.2875      -0.3189      70.5434     226.5090     227.6088      15.1228       0.8250    3501.7011    1694.9245
 2055.0000       9.7836      -6.4852      -0.1976       7.2929     -25.1068       0.4362      -0.0892       0.2837      -0.3188      51.1343     226.6257     225.4078      16.2745     359.0868    3575.9160    1695.6917
