~VERSION INFORMATION
VERS.           2.0   :CWLS Log ASCII Standard - VERSION 2.0
WRAP.           NO    :One Line per depth step
PROD.  Schlumberger   :LAS Producer
PROG.  DLIS to ASCII 19C2-270                          :LAS Program name and version
CREA.        2017/01/08 14:29                          :LAS Creation date {YYYY/MM/DD hh:mm}
DLIS_CREA.  2017-Jan-08 14:00                          :DLIS Creation date and time {YYYY-MMM-DD hh:mm}
SOURCE.     BDN-A1_12.25inch_S2R2_FMI-08-Jan-2017_Main.dlis  :DLIS File Name
FILE-ID.     ConCu_R05_L003Up_FBST                     :File Identification Number
#--------------------------------------------------
~WELL INFORMATION
#MNEM.UNIT      DATA             DESCRIPTION
#---- ------ --------------   -----------------------------
STRT .M      1316.0000       :START DEPTH     
STOP .M      2159.0000       :STOP DEPTH     
STEP .M       1.0000         :STEP     
NULL .          -999.25      :NULL VALUE
COMP .        PT. Pertamina Geothermal Energy          :COMPANY
WELL .        BDN-A/1                                  :WELL
FLD  .        Bukit Daun                               :FIELD
LOC  .        Bukit Daun                               :LOCATION
CNTY .        N-110 M1/18                              :COUNTY
STAT .        Bengkulu                                 :STATE
CTRY .        Indonesia                                :COUNTRY
API  .                                                 :API NUMBER
UWI  .                                                 :UNIQUE WELL ID
DATE .        08-Jan-2017                              :LOG DATE {DD-MMM-YYYY}
SRVC .        Schlumberger                             :SERVICE COMPANY
LATI .DEG     3° 21' 20.38" S                          :LATITUDE
LONG .DEG     102° 22' 17.32" E                        :LONGITUDE
GDAT .                                                 :GeoDetic Datum
#-----------------------------------------------------------------------------
~PARAMETER INFORMATION
#MNEM.UNIT    VALUE                      DESCRIPTION
#---- -----   --------------------       ------------------------
RUN  .          S2R2                     :RUN NUMBER
PDAT .        MSL                        :Permanent Datum
EPD  .C3           0.000000              :Elevation of Permanent Datum above Mean Sea Level
LMF  .          DF                       :Logging Measured From (Name of Logging Elevation Reference)
APD  .M         1748.500000              :Elevation of Depth Reference (LMF) above Permanent Datum
#-----------------------------------------------------------------------------
~CURVE INFORMATION
#MNEM.UNIT   API CODE                                  DESCRIPTION
#---- -----  --------                                  -----------------------
DEPT .M                                                :DEPTH (BOREHOLE) {F10.4}
ANOR .M/S2                                             :Acceleration Computed Norm (vector length) {F13.4}
AX   .M/S2                                             :Acceleration X-Axis {F13.4}
AY   .M/S2                                             :Acceleration Y-Axis {F13.4}
AZ   .M/S2                                             :Acceleration Z-Axis {F13.4}
FINC .DEG                                              :Magnetic Field Inclination {F13.4}
FNOR .OER                                              :Magnetic Field Intensity Computed Norm {F13.4}
FX   .OER                                              :Magnetometer X-Axis {F13.4}
FY   .OER                                              :Magnetometer Y-Axis {F13.4}
FZ   .OER                                              :Magnetometer Z-Axis {F13.4}
GR_EDTC.GAPI                                           :Gamma Ray {F13.4}
HAZI .DEG                                              :Hole Azimuth Relative to True North {F13.4}
P1AZ .DEG                                              :Pad 1 Azimuth in Horizontal Plane (0 = True North) {F13.4}
PP   .                                                 :Pad Pressure {F13.4}
RB   .DEG                                              :Relative Bearing {F13.4}
TENS .LBF                                              :Cable Tension {F13.4}
TVD  .M                                                :True Vertical Depth {F13.4}
#-----------------------------------------------------------------------------
# 
#     DEPT        ANOR         AX           AY           AZ           FINC         FNOR         FX           FY           FZ         GR_EDTC        HAZI         P1AZ         PP           RB           TENS         TVD
#
~A  
# ...
 1686.0000       9.7815      -6.4529       1.2722       7.2047     -24.9473       0.4367      -0.0227       0.2948      -0.3215      72.3207     226.1011     241.1661      28.6082      11.2580    3274.6755    1423.0622
 1687.0000       9.7814      -6.5220       0.9019       7.2687     -24.9475       0.4367      -0.0394       0.2929      -0.3215      85.0577     226.0807     237.1256      28.1921       8.2085    3288.3496    1423.8188
 1688.0000       9.7827      -6.5139       1.0393       7.3060     -24.9543       0.4367      -0.0333       0.2936      -0.3218      80.1249     226.0823     238.3651      29.3429       9.1332    3312.6524    1424.5712
 1689.0000       9.7820      -6.5196       1.0331       7.2748     -24.9544       0.4367      -0.0335       0.2934      -0.3217      80.0475     226.0824     238.3890      27.4584       9.1500    3328.3338    1425.3153
 1690.0000       9.7824      -6.5270       1.0244       6.9974     -24.9652       0.4367      -0.0333       0.2935      -0.3213      82.5198     226.1127     238.1625      26.9858       8.9586    3331.1216    1426.0713
 1691.0000       9.7823      -6.5116       1.0602       7.1795     -24.9591       0.4368      -0.0315       0.2941      -0.3213      80.3825     226.1490     238.4849      26.1590       9.1713    3308.1244    1426.8248
 1692.0000       9.7814      -6.4880       1.1099       7.0291     -24.9749       0.4367      -0.0306       0.2939      -0.3217      80.2809     226.1447     238.7603      26.4122       9.3822    3281.4259    1427.5764
 1693.0000       9.7815      -6.4908       0.9416       6.9608     -24.9676       0.4366      -0.0378       0.2930      -0.3216      84.5929     226.1304     236.8618      26.9785       7.9599    3293.8938    1428.3283
 1694.0000       9.7824      -6.5170       1.0393       7.2524     -24.9580       0.4367      -0.0327       0.2939      -0.3215      75.4042     226.1496     238.1728      25.4006       8.9283    3318.3478    1429.0804
 1695.0000       9.7825      -6.5350       0.9790       7.4099     -24.9543       0.4369      -0.0356       0.2937      -0.3215      76.5901     226.1680     237.6445      26.5665       8.5169    3316.2338    1429.8498
 1696.0000       9.7822      -6.5593       0.8704       7.1836     -24.9625       0.4368      -0.0399       0.2931      -0.3219      69.9739     226.1903     236.2078      25.2698       7.4170    3265.3278    1430.5849
 1697.0000       9.7821      -6.5521       0.9413       7.1935     -24.9707       0.4365      -0.0361       0.2931      -0.3213      77.5092     226.1924     237.4778      25.7817       8.3607    3280.6060    1431.3410
 1698.0000       9.7816      -6.5243       1.0530       7.2341     -24.9801       0.4366      -0.0312       0.2936      -0.3214      77.2694     226.1647     238.4595      25.9959       9.1196    3269.2401    1432.0831
 1699.0000       9.7825      -6.4724       1.3315       7.2306     -25.0048       0.4367      -0.0182       0.2948      -0.3216      79.4737     226.1504     241.7925      25.5042      11.6686    3291.4533    1432.8346
 1700.0000       9.7822      -6.4835       1.2308       7.2865     -25.0095       0.4367      -0.0233       0.2945      -0.3215      70.4991     226.1800     240.7418      26.6838      10.8560    3282.4412    1433.5981
 1701.0000       9.7824      -6.4897       1.0902       7.1318     -24.9860       0.4368      -0.0283       0.2947      -0.3209      77.7592     226.2784     239.4966      27.1608       9.8348    3322.1698    1434.3445
 1702.0000       9.7810      -6.5212       1.0505       7.1512     -24.9801       0.4368      -0.0323       0.2939      -0.3214      72.3554     226.1972     238.6019      27.5785       9.2212    3273.1754    1435.0918
 1703.0000       9.7815      -6.5585       0.7121       7.1750     -24.9818       0.4367      -0.0497       0.2912      -0.3216      73.2947     226.0936     234.3884      28.4456       6.1471    3309.9102    1435.8578
 1704.0000       9.7831      -6.5841       0.2392       7.2763     -24.9962       0.4366      -0.0689       0.2870      -0.3216      75.9292     226.0569     228.9700      27.6447       2.1553    3339.3808    1436.6030
 1705.0000       9.7822      -6.5933      -0.0524       7.2121     -25.0075       0.4365      -0.0812       0.2842      -0.3211      87.0094     226.1514     225.5273      28.6625     359.5386    3324.8555    1437.3485
 1706.0000       9.7824      -6.5852       0.5926       7.3341     -25.0069       0.4366      -0.0521       0.2913      -0.3211      83.0234     226.2743     233.0172      27.2733       4.9881    3341.3264    1438.1106
 1707.0000       9.7819      -6.5287       1.0424       7.0949     -24.9875       0.4368      -0.0322       0.2942      -0.3215      78.3145     226.2439     238.0278      27.6863       8.7509    3382.6996    1438.8506
 1708.0000       9.7819      -6.4816       1.1949       7.3047     -24.9819       0.4368      -0.0242       0.2948      -0.3215      78.1877     226.2144     240.1222      27.9425      10.3510    3355.7692    1439.5961
 1709.0000       9.7812      -6.4933       1.2441       7.2961     -24.9737       0.4368      -0.0224       0.2951      -0.3213      88.6898     226.2536     240.9666      27.6119      10.9559    3392.0040    1440.3667
 1710.0000       9.7810      -6.5273       1.0759       7.3266     -24.9774       0.4368      -0.0297       0.2945      -0.3212      82.6340     226.3191     239.1456      27.2555       9.5257    3364.0826    1441.0991
 1711.0000       9.7820      -6.5242       1.1638       7.2617     -24.9871       0.4368      -0.0273       0.2950      -0.3210      85.0336     226.3300     239.2994      27.0273       9.6274    3365.8913    1441.8594
 1712.0000       9.7820      -6.4715       1.0869       7.4294     -24.9896       0.4368      -0.0290       0.2946      -0.3213      90.8477     226.3057     239.2642      26.1666       9.6183    3398.7835    1442.6233
 1713.0000       9.7825      -6.5385       1.0202       7.3028     -24.9803       0.4368      -0.0324       0.2941      -0.3213      83.8969     226.2960     238.1923      26.7654       8.8164    3352.5746    1443.3611
 1714.0000       9.7836      -6.5462       0.9807       7.1401     -24.9979       0.4367      -0.0337       0.2937      -0.3213      77.0262     226.3087     237.4891      25.8203       8.2800    3361.0754    1444.1062
 1715.0000       9.7822      -6.5260       1.1254       7.2787     -24.9945       0.4367      -0.0268       0.2947      -0.3212      80.0729     226.3270     239.6064      27.1539       9.8542    3370.2811    1444.8610
 1716.0000       9.7817      -6.5183       1.1381       7.0711     -25.0061       0.4367      -0.0263       0.2946      -0.3211      86.5892     226.3458     239.3556      25.8339       9.6465    3301.3452    1445.6073
 1717.0000       9.7824      -6.5568       1.0829       7.1248     -25.0013       0.4368      -0.0287       0.2944      -0.3214      79.4444     226.3359     239.2869      25.5679       9.6034    3354.6491    1446.3672
 1718.0000       9.7814      -6.5459       1.0817       7.1701     -24.9970       0.4367      -0.0295       0.2944      -0.3213      82.5195     226.3052     239.3752      25.4858       9.6987    3377.1606    1447.1167
 1719.0000       9.7816      -6.5334       1.0263       7.0855     -24.9958       0.4367      -0.0320       0.2940      -0.3214      70.7182     226.2835     238.2861      25.8229       8.9007    3326.5016    1447.8633
 1720.0000       9.7820      -6.5994       0.4647       7.1002     -24.9998       0.4365      -0.0569       0.2899      -0.3214      80.1321     226.2090     232.1726      25.7985       4.4028    3288.9287    1448.6096
 1721.0000       9.7839      -6.5994      -0.2509       7.3069     -25.0206       0.4364      -0.0888       0.2812      -0.3215      78.6618     226.1601     223.5419      26.0761     358.0673    3373.0932    1449.3614
 1722.0000       9.7836      -6.5799      -0.4715       7.0674     -25.0119       0.4364      -0.0984       0.2781      -0.3216      77.0105     226.1499     221.1991      25.0359     356.3411    3367.5281    1450.1212
