~VERSION INFORMATION
VERS.           2.0   :CWLS Log ASCII Standard - VERSION 2.0
WRAP.           NO    :One Line per depth step
PROD.  Schlumberger   :LAS Producer
PROG.  DLIS to ASCII 19C2-270                          :LAS Program name and version
CREA.        2017/01/08 14:29                          :LAS Creation date {YYYY/MM/DD hh:mm}
DLIS_CREA.  2017-Jan-08 14:00                          :DLIS Creation date and time {YYYY-MMM-DD hh:mm}
SOURCE.     BDN-A1_12.25inch_S2R2_FMI-08-Jan-2017_Main.dlis  :DLIS File Name
FILE-ID.     ConCu_R05_L003Up_FBST                     :File Identification Number
#--------------------------------------------------
~WELL INFORMATION
#MNEM.UNIT      DATA             DESCRIPTION
#---- ------ --------------   -----------------------------
STRT .M      1316.0000       :START DEPTH     
STOP .M      2159.0000       :STOP DEPTH     
STEP .M       1.0000         :STEP     
NULL .          -999.25      :NULL VALUE
COMP .        PT. Pertamina Geothermal Energy          :COMPANY
WELL .        BDN-A/1                                  :WELL
FLD  .        Bukit Daun                               :FIELD
LOC  .        Bukit Daun                               :LOCATION
CNTY .        N-110 M1/18                              :COUNTY
STAT .        Bengkulu                                 :STATE
CTRY .        Indonesia                                :COUNTRY
API  .                                                 :API NUMBER
UWI  .                                                 :UNIQUE WELL ID
DATE .        08-Jan-2017                              :LOG DATE {DD-MMM-YYYY}
SRVC .        Schlumberger                             :SERVICE COMPANY
LATI .DEG     3° 21' 20.38" S                          :LATITUDE
LONG .DEG     102° 22' 17.32" E                        :LONGITUDE
GDAT .                                                 :GeoDetic Datum
#-----------------------------------------------------------------------------
~PARAMETER INFORMATION
#MNEM.UNIT    VALUE                      DESCRIPTION
#---- -----   --------------------       ------------------------
RUN  .          S2R2                     :RUN NUMBER
PDAT .        MSL                        :Permanent Datum
EPD  .C3           0.000000              :Elevation of Permanent Datum above Mean Sea Level
LMF  .          DF                       :Logging Measured From (Name of Logging Elevation Reference)
APD  .M         1748.500000              :Elevation of Depth Reference (LMF) above Permanent Datum
#-----------------------------------------------------------------------------
~CURVE INFORMATION
#MNEM.UNIT   API CODE                                  DESCRIPTION
#---- -----  --------                                  -----------------------
DEPT .M                                                :DEPTH (BOREHOLE) {F10.4}
ANOR .M/S2                                             :Acceleration Computed Norm (vector length) {F13.4}
AX   .M/S2                                             :Acceleration X-Axis {F13.4}
AY   .M/S2                                             :Acceleration Y-Axis {F13.4}
AZ   .M/S2                                             :Acceleration Z-Axis {F13.4}
FINC .DEG                                              :Magnetic Field Inclination {F13.4}
FNOR .OER                                              :Magnetic Field Intensity Computed Norm {F13.4}
FX   .OER                                              :Magnetometer X-Axis {F13.4}
FY   .OER                                              :Magnetometer Y-Axis {F13.4}
FZ   .OER                                              :Magnetometer Z-Axis {F13.4}
GR_EDTC.GAPI                                           :Gamma Ray {F13.4}
HAZI .DEG                                              :Hole Azimuth Relative to True North {F13.4}
P1AZ .DEG                                              :Pad 1 Azimuth in Horizontal Plane (0 = True North) {F13.4}
PP   .                                                 :Pad Pressure {F13.4}
RB   .DEG                                              :Relative Bearing {F13.4}
TENS .LBF                                              :Cable Tension {F13.4}
TVD  .M                                                :True Vertical Depth {F13.4}
#-----------------------------------------------------------------------------
# 
#     DEPT        ANOR         AX           AY           AZ           FINC         FNOR         FX           FY           FZ         GR_EDTC        HAZI         P1AZ         PP           RB           TENS         TVD
#
~A  
# ...
 1538.0000       9.7837      -6.4250      -0.7397       7.4525     -25.0219       0.4327      -0.1128       0.2716      -0.3176     117.7907     226.1858     217.4568      22.5116     353.4434    3069.7650    1310.7377
 1539.0000       9.7831      -6.3869      -1.0822       7.4110     -24.9729       0.4324      -0.1290       0.2648      -0.3166      48.0434     226.2448     213.9343      28.0354     350.7116    3036.4170    1311.4919
 1540.0000       9.7824      -6.3818      -1.1888       7.5153     -24.8251       0.4313      -0.1334       0.2619      -0.3153      87.2152     226.2282     212.1437      28.0154     349.3561    3056.9867    1312.2665
 1541.0000       9.7837      -6.3642      -1.1620       7.3776     -24.8153       0.4316      -0.1311       0.2643      -0.3145      79.7163     226.3213     213.1394      28.2922     350.0465    3057.7684    1313.0219
 1542.0000       9.7819      -6.4078      -0.9443       7.2942     -24.5534       0.4351      -0.1261       0.2681      -0.3147      76.7732     226.3282     215.1381      28.7209     351.5681    3031.7664    1313.7802
 1543.0000       9.7834      -6.4035      -0.9968       7.5250     -24.6804       0.4374      -0.1248       0.2674      -0.3213     112.4067     226.2367     215.1748      28.0500     351.6625    3046.7567    1314.5505
 1544.0000       9.7830      -6.3032      -1.6156       7.3823     -23.6172       0.4416      -0.1717       0.2625      -0.3197     107.6053     226.1222     205.9063      29.2690     344.5909    3041.2939    1315.3084
 1545.0000       9.7822      -6.3791      -1.1728       7.3032     -24.0740       0.4376      -0.1426       0.2689      -0.3164     130.3370     226.2701     210.8593      28.1646     348.3415    3002.1730    1316.0670
 1546.0000       9.7832      -6.4654      -0.1954       7.3068     -24.3495       0.4371      -0.0991       0.2881      -0.3170     131.2514     226.4494     223.3396      28.9400     357.6657    3048.1523    1316.8306
 1547.0000       9.7829      -6.4443      -0.1141       7.3125     -23.6972       0.4389      -0.0940       0.2889      -0.3133      83.1598     226.8184     225.3926      27.9514     358.9288    3061.3535    1317.5959
 1548.0000       9.7829      -6.4527      -0.4584       7.4207     -23.3073       0.4390      -0.1086       0.2857      -0.3143     120.0085     227.0207     222.3549      29.0944     356.4891    3071.2491    1318.3625
 1549.0000       9.7823      -6.4234      -0.6733       7.3130     -24.3847       0.4355      -0.1111       0.2731      -0.3175      61.9499     226.5109     219.5801      28.8207     354.7806    3073.6800    1319.1256
 1550.0000       9.7833      -6.3884      -0.9209       7.3216     -24.9248       0.4369      -0.1242       0.2721      -0.3188      35.7592     226.4801     215.6110      29.7864     351.7888    3066.2346    1319.8879
 1551.0000       9.7833      -6.4081      -0.9281       7.1089     -24.8165       0.4367      -0.1254       0.2730      -0.3170      56.7819     226.6697     215.6071      28.8011     351.6364    3057.8185    1320.6491
 1552.0000       9.7840      -6.3321      -1.2340       7.1582     -24.8979       0.4361      -0.1380       0.2647      -0.3186     106.0051     226.4801     212.2027      29.5460     349.1583    3071.2085    1321.4158
 1553.0000       9.7827      -6.2475      -1.5271       7.3777     -25.0161       0.4370      -0.1505       0.2585      -0.3194      71.4040     226.4517     208.2167      27.6068     346.0693    3067.7329    1322.1881
 1554.0000       9.7833      -6.2648      -1.4861       7.4350     -24.9460       0.4378      -0.1483       0.2612      -0.3190      74.5825     226.5650     208.8456      29.6104     346.4675    3102.0585    1322.9565
 1555.0000       9.7832      -6.3356      -1.1919       7.3136     -24.9510       0.4373      -0.1366       0.2663      -0.3186      85.6434     226.5602     212.4116      28.5293     349.2410    3086.4343    1323.7183
 1556.0000       9.7836      -6.3692      -0.8242       7.3521     -25.0572       0.4370      -0.1208       0.2733      -0.3190     182.8974     226.4793     216.1283      29.0928     352.1538    3092.5870    1324.4882
 1557.0000       9.7838      -6.3924      -0.6150       7.2192     -25.1052       0.4371      -0.1127       0.2767      -0.3188     113.1177     226.5434     218.8062      27.9436     354.1426    3111.3644    1325.2520
 1558.0000       9.7855      -6.3562      -0.4713       7.5862     -25.0964       0.4373      -0.1048       0.2811      -0.3185      78.0971     226.6109     220.6809      22.8900     355.5115    3132.3862    1326.0194
 1559.0000       9.7833      -6.2329      -1.4883       7.4030     -25.1269       0.4368      -0.1485       0.2589      -0.3189      82.6591     226.5425     209.1432      25.8876     346.6754    3103.2598    1326.7812
 1560.0000       9.7835      -6.2908      -1.2257       7.4349     -25.0887       0.4366      -0.1381       0.2645      -0.3185     119.9068     226.4759     211.6569      26.7585     348.6953    3142.4648    1327.5554
 1561.0000       9.7839      -6.2919      -1.2690       7.4221     -24.9230       0.4367      -0.1403       0.2644      -0.3182      42.8301     226.4822     211.4733      25.8462     348.5492    3108.4031    1328.3168
 1562.0000       9.7832      -6.3210      -1.0747       7.3712     -24.7652       0.4371      -0.1334       0.2695      -0.3166      35.4098     226.7018     213.7808      26.9278     350.1692    3133.6628    1329.0860
 1563.0000       9.7834      -6.2944      -1.2655       7.3551     -24.9280       0.4396      -0.1403       0.2700      -0.3190      49.7233     226.9203     211.8269      26.0009     348.4915    3113.6077    1329.8436
 1564.0000       9.7835      -6.2488      -1.4224       7.4764     -25.3174       0.4396      -0.1410       0.2633      -0.3215     104.8466     226.6675     211.2501      27.4381     348.2596    3132.0572    1330.6160
 1565.0000       9.7837      -6.3636      -0.6695       7.4730     -25.2877       0.4384      -0.1143       0.2758      -0.3213     157.4952     226.4474     217.2940      27.1447     353.0680    3127.1139    1331.3881
 1566.0000       9.7831      -6.4051      -0.2244       7.3534     -25.1440       0.4375      -0.0954       0.2823      -0.3201     176.2154     226.2957     223.5945      27.3068     357.9582    3090.1527    1332.1537
 1567.0000       9.7832      -6.4047      -0.0520       7.3578     -24.8762       0.4363      -0.0903       0.2833      -0.3188     137.4985     226.1571     225.1989      28.3939     359.2752    3098.6633    1332.9219
 1568.0000       9.7825      -6.3852       0.0252       7.4330     -23.9038       0.4391      -0.0953       0.2920      -0.3135     113.2939     226.2249     226.6163      27.9549       0.2962    3059.5461    1333.6830
 1569.0000       9.7828      -6.3849       0.0375       7.3287     -24.3474       0.4421      -0.0899       0.2913      -0.3242      73.4613     226.1989     227.6830      27.7466       1.1233    3099.2061    1334.4522
 1570.0000       9.7828      -6.3704      -0.4656       7.3971     -25.1297       0.4421      -0.1088       0.2849      -0.3204      96.5457     226.4270     221.3018      27.7928     356.1178    3078.0517    1335.2182
 1571.0000       9.7839      -6.3709      -0.5952       7.5006     -25.4916       0.4416      -0.1111       0.2769      -0.3253      76.4177     226.0883     218.8732      28.0360     354.5336    3121.7865    1335.9870
 1572.0000       9.7829      -6.2930      -1.2338       7.4162     -25.3907       0.4398      -0.1391       0.2618      -0.3242      88.2770     225.7950     211.5210      28.7610     349.1233    3083.1693    1336.7538
 1573.0000       9.7830      -6.3320      -1.0101       7.2344     -25.2890       0.4391      -0.1314       0.2662      -0.3236      81.1454     225.7325     213.6948      28.7806     350.8467    3097.1709    1337.5219
 1574.0000       9.7830      -6.3081      -1.1382       7.4074     -25.2213       0.4387      -0.1364       0.2629      -0.3232      69.3154     225.6679     211.9178      29.1452     349.5251    3111.1956    1338.2906
