~VERSION INFORMATION
VERS.           2.0   :CWLS Log ASCII Standard - VERSION 2.0
WRAP.           NO    :One Line per depth step
PROD.  Schlumberger   :LAS Producer
PROG.  DLIS to ASCII 19C2-270                          :LAS Program name and version
CREA.        2017/01/08 14:29                          :LAS Creation date {YYYY/MM/DD hh:mm}
DLIS_CREA.  2017-Jan-08 14:00                          :DLIS Creation date and time {YYYY-MMM-DD hh:mm}
SOURCE.     BDN-A1_12.25inch_S2R2_FMI-08-Jan-2017_Main.dlis  :DLIS File Name
FILE-ID.     ConCu_R05_L003Up_FBST                     :File Identification Number
#--------------------------------------------------
~WELL INFORMATION
#MNEM.UNIT      DATA             DESCRIPTION
#---- ------ --------------   -----------------------------
STRT .M      1316.0000       :START DEPTH     
STOP .M      2159.0000       :STOP DEPTH     
STEP .M       1.0000         :STEP     
NULL .          -999.25      :NULL VALUE
COMP .        PT. Pertamina Geothermal Energy          :COMPANY
WELL .        BDN-A/1                                  :WELL
FLD  .        Bukit Daun                               :FIELD
LOC  .        Bukit Daun                               :LOCATION
CNTY .        N-110 M1/18                              :COUNTY
STAT .        Bengkulu                                 :STATE
CTRY .        Indonesia                                :COUNTRY
API  .                                                 :API NUMBER
UWI  .                                                 :UNIQUE WELL ID
DATE .        08-Jan-2017                              :LOG DATE {DD-MMM-YYYY}
SRVC .        Schlumberger                             :SERVICE COMPANY
LATI .DEG     3° 21' 20.38" S                          :LATITUDE
LONG .DEG     102° 22' 17.32" E                        :LONGITUDE
GDAT .                                                 :GeoDetic Datum
#-----------------------------------------------------------------------------
~PARAMETER INFORMATION
#MNEM.UNIT    VALUE                      DESCRIPTION
#---- -----   --------------------       ------------------------
RUN  .          S2R2                     :RUN NUMBER
PDAT .        MSL                        :Permanent Datum
EPD  .C3           0.000000              :Elevation of Permanent Datum above Mean Sea Level
LMF  .          DF                       :Logging Measured From (Name of Logging Elevation Reference)
APD  .M         1748.500000              :Elevation of Depth Reference (LMF) above Permanent Datum
#-----------------------------------------------------------------------------
~CURVE INFORMATION
#MNEM.UNIT   API CODE                                  DESCRIPTION
#---- -----  --------                                  -----------------------
DEPT .M                                                :DEPTH (BOREHOLE) {F10.4}
ANOR .M/S2                                             :Acceleration Computed Norm (vector length) {F13.4}
AX   .M/S2                                             :Acceleration X-Axis {F13.4}
AY   .M/S2                                             :Acceleration Y-Axis {F13.4}
AZ   .M/S2                                             :Acceleration Z-Axis {F13.4}
FINC .DEG                                              :Magnetic Field Inclination {F13.4}
FNOR .OER                                              :Magnetic Field Intensity Computed Norm {F13.4}
FX   .OER                                              :Magnetometer X-Axis {F13.4}
FY   .OER                                              :Magnetometer Y-Axis {F13.4}
FZ   .OER                                              :Magnetometer Z-Axis {F13.4}
GR_EDTC.GAPI                                           :Gamma Ray {F13.4}
HAZI .DEG                                              :Hole Azimuth Relative to True North {F13.4}
P1AZ .DEG                                              :Pad 1 Azimuth in Horizontal Plane (0 = True North) {F13.4}
PP   .                                                 :Pad Pressure {F13.4}
RB   .DEG                                              :Relative Bearing {F13.4}
TENS .LBF                                              :Cable Tension {F13.4}
TVD  .M                                                :True Vertical Depth {F13.4}
#-----------------------------------------------------------------------------
# 
#     DEPT        ANOR         AX           AY           AZ           FINC         FNOR         FX           FY           FZ         GR_EDTC        HAZI         P1AZ         PP           RB           TENS         TVD
#
~A  
# ...
 1982.0000       9.7825      -6.8570      -0.7307       7.1205     -24.3650       0.4173      -0.1112       0.2591      -0.3157      32.8072     224.7339     217.1927      17.3623     354.4938    3584.6959    1640.5603
 1983.0000       9.7794      -6.6802      -0.4323       7.0718     -24.3001       0.4184      -0.1050       0.2658      -0.3157      54.2852     225.2387     218.5775      16.9626     355.1370    3507.9583    1641.3056
 1984.0000       9.7823      -6.6744      -0.4590       7.1282     -25.8635       0.4221      -0.0818       0.2537      -0.3171      81.2103     225.2543     220.6572      17.2770     356.6422    3505.5113    1642.0388
 1985.0000       9.7813      -6.6687      -0.2413       7.1298     -25.3782       0.4291      -0.0869       0.2840      -0.3232      76.7581     225.7154     223.0060      17.2373     358.0197    3463.2541    1642.7862
 1986.0000       9.7823      -6.6430      -0.5911       7.2466     -25.4024       0.4262      -0.0980       0.2664      -0.3154      77.5553     225.7992     218.8088      17.2816     354.8755    3504.2472    1643.5359
 1987.0000       9.7837      -6.6384      -0.5442       7.1455     -25.2600       0.4301      -0.0965       0.2733      -0.3227      74.5442     225.7371     218.7252      16.5502     354.8557    3505.6700    1644.2588
 1988.0000       9.7821      -6.6466      -0.1365       7.2994     -24.8714       0.4302      -0.0831       0.2749      -0.3189      74.1693     225.4794     223.6710      15.9783     358.6751    3499.2175    1645.0223
 1989.0000       9.7836      -6.6317      -0.3353       7.1625     -24.6702       0.4305      -0.0944       0.2744      -0.3188      50.4347     225.4925     221.3039      16.4710     356.9249    3506.0539    1645.7633
 1990.0000       9.7820      -6.6379      -0.3580       7.1725     -24.6555       0.4309      -0.0932       0.2758      -0.3175      59.0496     225.8813     221.3618      17.5209     356.6773    3495.9669    1646.5096
 1991.0000       9.7827      -6.6450      -0.0391       7.1400     -24.6469       0.4320      -0.0819       0.2813      -0.3184      73.1228     225.9877     225.6443      16.8954     359.7474    3475.4945    1647.2574
 1992.0000       9.7835      -6.6222       0.3675       7.3461     -24.5789       0.4319      -0.0626       0.2867      -0.3173      69.2475     226.1286     229.7949      17.3696       2.6997    3545.8384    1648.0123
 1993.0000       9.7819      -6.6189       0.2817       7.1962     -24.3035       0.4310      -0.0676       0.2885      -0.3151      86.3711     226.3735     230.6029      17.4654       3.1165    3520.3295    1648.7459
 1994.0000       9.7831      -6.5742      -1.1338       7.1869     -24.3630       0.4296      -0.1242       0.2655      -0.3146      58.1897     226.2392     214.9507      16.2149     351.6435    3559.1390    1649.5015
 1995.0000       9.7822      -6.5689      -0.8053       7.2452     -24.2609       0.4284      -0.1151       0.2697      -0.3128      70.8447     226.1967     215.8237      17.5409     352.3316    3526.7789    1650.2475
 1996.0000       9.7827      -6.5796      -0.6801       7.2073     -24.2275       0.4270      -0.1064       0.2710      -0.3094      79.8380     226.4663     218.7404      16.3074     354.2960    3561.1888    1650.9984
 1997.0000       9.7835      -6.5733      -0.7562       7.1964     -24.3535       0.4277      -0.1102       0.2714      -0.3113      82.9490     226.7173     217.2621      17.4242     353.0101    3535.7132    1651.7449
 1998.0000       9.7828      -6.5992      -0.4067       7.1368     -24.4070       0.4284      -0.0943       0.2795      -0.3123      97.3191     226.8458     221.9759      16.9348     356.4093    3499.3472    1652.4857
 1999.0000       9.7818      -6.6083       0.0920       7.2386     -24.3659       0.4298      -0.0720       0.2868      -0.3112      67.4998     226.6644     227.3505      16.6479      73.2613    3511.0092    1653.2386
 2000.0000       9.7831      -6.6098       0.0981       7.2492     -24.6538       0.4301      -0.0731       0.2831      -0.3160      61.3614     226.4011     227.1802      17.9192       0.5742    3553.9620    1653.9940
 2001.0000       9.7828      -6.5964       0.1618       7.1383     -24.3402       0.4278      -0.0738       0.2827      -0.3138      56.0678     226.2153     227.9683      17.0078       1.2932    3514.8540    1654.7404
 2002.0000       9.7821      -6.5965       0.1506       7.2219     -24.1645       0.4266      -0.0731       0.2848      -0.3062      64.2102     226.8451     228.5018      17.3597       1.2231    3515.3277    1655.4963
 2003.0000       9.7807      -6.6047       0.0210       7.0660     -24.6915       0.4287      -0.0683       0.2908      -0.3075      39.8980     228.2077     228.9231      16.8505       0.5280    3511.0447    1656.2434
 2004.0000       9.7823      -6.8175       0.2396       7.6257     -24.6846       0.4294      -0.0636       0.2949      -0.3061      33.8252     228.4266     230.4061      17.8228       1.4609    3664.9655    1657.0050
 2005.0000       9.7817      -6.5983      -0.2239       7.3420     -24.6504       0.4263      -0.0878       0.2798      -0.3034      25.2459     227.4517     224.3726      17.1349     357.7273    3578.8979    1657.7626
 2006.0000       9.7830      -6.4792      -1.1391       7.2442     -24.7671       0.4302      -0.1268       0.2715      -0.3117      24.9929     226.9194     214.2288      15.9028     350.5579    3553.5169    1658.5102
 2007.0000       9.7830      -6.3765      -1.6792       7.2252     -24.3963       0.4325      -0.1526       0.2565      -0.3128      31.7705     226.5918     207.2078      16.3889     345.4268    3541.1762    1659.2591
 2008.0000       9.7828      -6.4548      -1.4793       7.0489     -23.4330       0.4346      -0.1515       0.2624      -0.3131      23.9782     226.4630     208.9216      16.2298     346.8447    3485.0122    1660.0094
 2009.0000       9.7827      -6.3979      -1.4657       7.3658     -24.2207       0.4354      -0.1480       0.2586      -0.3142      19.6184     226.3130     206.0734      17.4924     344.7148    3508.7169    1660.7710
 2010.0000       9.7833      -6.5486      -0.3946       7.1870     -25.2127       0.4349      -0.0932       0.2780      -0.3222      28.7586     226.4473     221.4726      16.6163     356.3040    3501.8593    1661.5210
 2011.0000       9.7822      -6.5249      -0.2447       7.2542     -24.3157       0.4339      -0.0945       0.2843      -0.3153      23.7486     226.8637     223.9536      17.3304     357.8338    3500.6251    1662.2790
 2012.0000       9.7825      -6.6113       0.1386       7.7406     -23.4564       0.4345      -0.0756       0.2948      -0.3087      34.6029     227.0207     229.6836      16.8583       1.9879    3582.2107    1663.0400
 2013.0000       9.7810      -6.6451       0.4669       6.5617     -23.2171       0.4349      -0.0795       0.2905      -0.3084      32.9612     226.5110     229.7153      16.7655       2.3959    3408.0019    1663.7747
 2014.0000       9.7811      -6.4431       0.7948       6.7199     -23.7416       0.4363      -0.0496       0.3042      -0.3124      29.0376     227.4101     235.2494      16.0292       5.8803    3420.2360    1664.5440
 2015.0000       9.7822      -6.4852       0.3364       7.4132     -24.2055       0.4355      -0.0681       0.2995      -0.3112      30.5510     228.0924     231.4436      16.2428       2.5085    3428.8259    1665.2899
 2016.0000       9.7830      -6.4546      -0.8094       7.4357     -25.0407       0.4345      -0.1145       0.2775      -0.3160      29.7406     228.0194     218.9583      17.9629     353.1946    3502.7912    1666.0422
 2017.0000       9.7826      -6.2722      -1.6629       7.4030     -25.6834       0.4296      -0.1404       0.2613      -0.3132      29.2818     227.8180     209.9076      15.6156     346.4125    3541.5026    1666.8044
 2018.0000       9.7812      -6.1572      -1.7226       7.1989     -24.5654       0.4274      -0.1519       0.2502      -0.3081      29.9247     227.5786     207.3465      17.5002     344.5935    3433.8306    1667.5563
