~VERSION INFORMATION
VERS.           2.0   :CWLS Log ASCII Standard - VERSION 2.0
WRAP.           NO    :One Line per depth step
PROD.  Schlumberger   :LAS Producer
PROG.  DLIS to ASCII 19C2-270                          :LAS Program name and version
CREA.        2017/01/08 14:29                          :LAS Creation date {YYYY/MM/DD hh:mm}
DLIS_CREA.  2017-Jan-08 14:00                          :DLIS Creation date and time {YYYY-MMM-DD hh:mm}
SOURCE.     BDN-A1_12.25inch_S2R2_FMI-08-Jan-2017_Main.dlis  :DLIS File Name
FILE-ID.     ConCu_R05_L003Up_FBST                     :File Identification Number
#--------------------------------------------------
~WELL INFORMATION
#MNEM.UNIT      DATA             DESCRIPTION
#---- ------ --------------   -----------------------------
STRT .M      1316.0000       :START DEPTH     
STOP .M      2159.0000       :STOP DEPTH     
STEP .M       1.0000         :STEP     
NULL .          -999.25      :NULL VALUE
COMP .        PT. Pertamina Geothermal Energy          :COMPANY
WELL .        BDN-A/1                                  :WELL
FLD  .        Bukit Daun                               :FIELD
LOC  .        Bukit Daun                               :LOCATION
CNTY .        N-110 M1/18                              :COUNTY
STAT .        Bengkulu                                 :STATE
CTRY .        Indonesia                                :COUNTRY
API  .                                                 :API NUMBER
UWI  .                                                 :UNIQUE WELL ID
DATE .        08-Jan-2017                              :LOG DATE {DD-MMM-YYYY}
SRVC .        Schlumberger                             :SERVICE COMPANY
LATI .DEG     3° 21' 20.38" S                          :LATITUDE
LONG .DEG     102° 22' 17.32" E                        :LONGITUDE
GDAT .                                                 :GeoDetic Datum
#-----------------------------------------------------------------------------
~PARAMETER INFORMATION
#MNEM.UNIT    VALUE                      DESCRIPTION
#---- -----   --------------------       ------------------------
RUN  .          S2R2                     :RUN NUMBER
PDAT .        MSL                        :Permanent Datum
EPD  .C3           0.000000              :Elevation of Permanent Datum above Mean Sea Level
LMF  .          DF                       :Logging Measured From (Name of Logging Elevation Reference)
APD  .M         1748.500000              :Elevation of Depth Reference (LMF) above Permanent Datum
#-----------------------------------------------------------------------------
~CURVE INFORMATION
#MNEM.UNIT   API CODE                                  DESCRIPTION
#---- -----  --------                                  -----------------------
DEPT .M                                                :DEPTH (BOREHOLE) {F10.4}
ANOR .M/S2                                             :Acceleration Computed Norm (vector length) {F13.4}
AX   .M/S2                                             :Acceleration X-Axis {F13.4}
AY   .M/S2                                             :Acceleration Y-Axis {F13.4}
AZ   .M/S2                                             :Acceleration Z-Axis {F13.4}
FINC .DEG                                              :Magnetic Field Inclination {F13.4}
FNOR .OER                                              :Magnetic Field Intensity Computed Norm {F13.4}
FX   .OER                                              :Magnetometer X-Axis {F13.4}
FY   .OER                                              :Magnetometer Y-Axis {F13.4}
FZ   .OER                                              :Magnetometer Z-Axis {F13.4}
GR_EDTC.GAPI                                           :Gamma Ray {F13.4}
HAZI .DEG                                              :Hole Azimuth Relative to True North {F13.4}
P1AZ .DEG                                              :Pad 1 Azimuth in Horizontal Plane (0 = True North) {F13.4}
PP   .                                                 :Pad Pressure {F13.4}
RB   .DEG                                              :Relative Bearing {F13.4}
TENS .LBF                                              :Cable Tension {F13.4}
TVD  .M                                                :True Vertical Depth {F13.4}
#-----------------------------------------------------------------------------
# 
#     DEPT        ANOR         AX           AY           AZ           FINC         FNOR         FX           FY           FZ         GR_EDTC        HAZI         P1AZ         PP           RB           TENS         TVD
#
~A  
# ...
 1575.0000       9.7829      -6.3212      -1.0458       7.3979     -25.1662       0.4384      -0.1331       0.2646      -0.3235      77.7023     225.5718     213.2206      28.4684     350.6046    3124.8054    1339.0537
 1576.0000       9.7832      -6.2808      -1.2630       7.3894     -25.1346       0.4380      -0.1430       0.2587      -0.3230      71.4793     225.4782     209.8585      28.5597     348.0702    3117.4244    1339.8272
 1577.0000       9.7827      -6.2853      -1.3491       7.4159     -25.0942       0.4378      -0.1464       0.2570      -0.3228      77.7975     225.4708     209.7060      28.5425     347.9584    3115.4315    1340.5892
 1578.0000       9.7845      -6.2755      -1.2213       7.4540     -25.0801       0.4377      -0.1429       0.2587      -0.3227      80.1093     225.4292     210.8579      28.3457     348.8782    3121.6326    1341.3564
 1579.0000       9.7835      -6.2895      -1.1472       7.3662     -25.0633       0.4376      -0.1379       0.2615      -0.3226      83.7750     225.4423     211.6796      28.5493     349.5057    3106.7032    1342.1239
 1580.0000       9.7829      -6.3613      -0.6910       7.4592     -25.0432       0.4375      -0.1193       0.2708      -0.3222      77.2868     225.4763     216.7787      28.2159     353.3981    3100.5897    1342.8885
 1581.0000       9.7828      -6.3178      -0.9514       7.3131     -25.0245       0.4374      -0.1303       0.2658      -0.3221      74.7515     225.5156     214.1599      28.4421     351.3627    3100.6874    1343.6481
 1582.0000       9.7834      -6.3648      -0.4793       7.3703     -25.0225       0.4374      -0.1115       0.2743      -0.3220      74.8576     225.5524     219.3012      27.8383     355.2626    3126.2070    1344.4227
 1583.0000       9.7829      -6.3855      -0.3802       7.3979     -25.0101       0.4374      -0.1066       0.2763      -0.3219      72.5372     225.5386     221.2807      28.7042     356.7758    3103.5897    1345.1825
 1584.0000       9.7834      -6.3691      -0.4188       7.4861     -25.0029       0.4373      -0.1076       0.2757      -0.3219      66.8943     225.5240     219.7886      27.9629     355.6568    3109.8831    1345.9455
 1585.0000       9.7831      -6.4015      -0.3142       7.4396     -24.9931       0.4372      -0.1025       0.2780      -0.3215      71.9586     225.5761     221.7766      28.4274     357.1266    3087.7220    1346.7090
 1586.0000       9.7826      -6.4076      -0.3730       7.4801     -24.9833       0.4372      -0.1044       0.2774      -0.3215      81.1094     225.6280     221.4738      28.8860     356.8618    3135.9049    1347.4762
 1587.0000       9.7835      -6.4160      -0.5063       7.3993     -24.9808       0.4371      -0.1099       0.2748      -0.3217      78.8667     225.5740     219.5325      28.2497     355.4407    3115.7876    1348.2360
 1588.0000       9.7835      -6.3712      -1.0185       7.3561     -24.9742       0.4370      -0.1320       0.2635      -0.3228      86.0177     225.3202     213.8560      26.7643     351.3271    3114.7089    1348.9983
 1589.0000       9.7837      -6.3964      -0.8866       7.2723     -24.9714       0.4370      -0.1258       0.2661      -0.3229      82.5984     225.2245     214.4561      27.3383     351.8692    3111.1914    1349.7630
 1590.0000       9.7840      -6.4095      -0.6343       7.4689     -24.9514       0.4370      -0.1167       0.2701      -0.3232      80.1424     225.1413     219.2420      28.0888     355.5601    3148.8789    1350.5250
 1591.0000       9.7832      -6.3163      -1.3798       7.4025     -24.9737       0.4366      -0.1458       0.2539      -0.3240      60.7601     224.9152     208.2209      29.0647     347.3213    3104.7190    1351.2832
 1592.0000       9.7836      -6.3302      -1.3357       7.4475     -24.9974       0.4363      -0.1445       0.2524      -0.3243      49.2196     224.7769     208.9160      27.8052     347.9711    3106.9934    1352.0458
 1593.0000       9.7833      -6.2990      -1.4620       7.4102     -25.0006       0.4369      -0.1497       0.2512      -0.3248      69.0925     224.8007     207.3061      29.2956     346.6959    3128.7992    1352.8053
 1594.0000       9.7833      -6.3464      -1.2592       7.2358     -24.9919       0.4369      -0.1415       0.2566      -0.3241      76.7057     224.9287     209.5896      28.4931     348.3692    3132.5945    1353.5644
 1595.0000       9.7821      -6.3434      -1.2038       7.1825     -24.9612       0.4367      -0.1389       0.2581      -0.3235      71.7255     224.9608     210.8249      27.4374     349.3029    3121.0324    1354.3109
 1596.0000       9.7846      -6.5395      -1.9808       6.8010     -24.9812       0.4367      -0.1565       0.2475      -0.3237      73.2264     224.9637     205.8402      27.0648     345.4474    3179.4948    1355.0668
 1597.0000       9.7824      -6.4474      -0.9933       7.4591     -24.9896       0.4367      -0.1317       0.2616      -0.3237      85.5288     224.9718     212.6542      23.9080     350.6942    3186.5370    1355.8492
 1598.0000       9.7826      -6.2305      -1.6847       7.2681     -24.9880       0.4366      -0.1588       0.2457      -0.3241      63.6388     224.8480     205.3099      25.7739     345.0847    3160.9015    1356.6008
 1599.0000       9.7833      -6.2250      -1.7879       7.3490     -25.0168       0.4365      -0.1619       0.2423      -0.3250      91.1371     224.7112     203.5689      25.4556     343.8422    3151.8081    1357.3657
 1600.0000       9.7840      -6.2443      -1.8550       7.4093     -25.0125       0.4365      -0.1637       0.2410      -0.3250      71.8522     224.6818     202.9174      24.4628     343.3697    3164.4411    1358.1182
 1601.0000       9.7837      -6.2064      -1.9364       7.6403     -25.0047       0.4366      -0.1667       0.2392      -0.3250      70.6970     224.7063     202.0584      25.0474     342.6877    3171.9820    1358.8861
 1602.0000       9.7831      -6.1779      -2.0554       7.2327     -25.0000       0.4365      -0.1707       0.2358      -0.3252      80.8187     224.6935     200.7612      24.1778     341.6749    3132.7693    1359.6264
 1603.0000       9.7851      -6.1857      -2.1110       6.9852     -24.9802       0.4365      -0.1716       0.2350      -0.3253      75.5336     224.7402     200.3313      24.9437     341.3226    3178.3887    1360.3745
 1604.0000       9.7817      -6.5325      -0.3359       7.0050     -24.9910       0.4368      -0.1006       0.2739      -0.3253      75.6494     224.8930     220.3690      25.9481     356.6324    3136.5047    1361.1466
 1605.0000       9.7832      -6.4820      -0.1780       7.2263     -25.0008       0.4366      -0.0934       0.2774      -0.3244      72.5207     225.0061     222.7553      26.5295     358.3211    3170.1679    1361.9130
 1606.0000       9.7820      -6.5197       0.1744       7.2485     -24.9647       0.4367      -0.0808       0.2817      -0.3244      74.5456     225.0348     226.9740      25.7780       1.4494    3157.7800    1362.6700
 1607.0000       9.7819      -6.4685       0.4930       7.2489     -24.9450       0.4368      -0.0676       0.2852      -0.3238      75.3626     225.0551     229.9630      25.5011       3.6768    3151.4167    1363.4245
 1608.0000       9.7828      -6.5051       0.2358       7.3631     -24.9391       0.4369      -0.0772       0.2829      -0.3238      74.2419     225.0750     228.1362      26.5214       2.2905    3192.8904    1364.1900
 1609.0000       9.7830      -6.5087      -0.3127       7.3515     -24.9393       0.4368      -0.1002       0.2747      -0.3240      72.4715     225.0035     222.2826      26.1490     357.9670    3222.8540    1364.9384
 1610.0000       9.7832      -6.4399      -0.9528       7.1754     -24.9737       0.4366      -0.1267       0.2636      -0.3245      72.7244     224.9806     214.1577      26.5513     351.8823    3219.4921    1365.6962
 1611.0000       9.7838      -6.4552      -1.0389       7.1911     -24.9810       0.4365      -0.1287       0.2625      -0.3241      74.3325     225.0438     213.1681      25.1062     351.0916    3211.9458    1366.4548
