~VERSION INFORMATION
VERS.           2.0   :CWLS Log ASCII Standard - VERSION 2.0
WRAP.           NO    :One Line per depth step
PROD.  Schlumberger   :LAS Producer
PROG.  DLIS to ASCII 19C2-270                          :LAS Program name and version
CREA.        2017/01/08 14:29                          :LAS Creation date {YYYY/MM/DD hh:mm}
DLIS_CREA.  2017-Jan-08 14:00                          :DLIS Creation date and time {YYYY-MMM-DD hh:mm}
SOURCE.     BDN-A1_12.25inch_S2R2_FMI-08-Jan-2017_Main.dlis  :DLIS File Name
FILE-ID.     ConCu_R05_L003Up_FBST                     :File Identification Number
#--------------------------------------------------
~WELL INFORMATION
#MNEM.UNIT      DATA             DESCRIPTION
#---- ------ --------------   -----------------------------
STRT .M      1316.0000       :START DEPTH     
STOP .M      2159.0000       :STOP DEPTH     
STEP .M       1.0000         :STEP     
NULL .          -999.25      :NULL VALUE
COMP .        PT. Pertamina Geothermal Energy          :COMPANY
WELL .        BDN-A/1                                  :WELL
FLD  .        Bukit Daun                               :FIELD
LOC  .        Bukit Daun                               :LOCATION
CNTY .        N-110 M1/18                              :COUNTY
STAT .        Bengkulu                                 :STATE
CTRY .        Indonesia                                :COUNTRY
API  .                                                 :API NUMBER
UWI  .                                                 :UNIQUE WELL ID
DATE .        08-Jan-2017                              :LOG DATE {DD-MMM-YYYY}
SRVC .        Schlumberger                             :SERVICE COMPANY
LATI .DEG     3° 21' 20.38" S                          :LATITUDE
LONG .DEG     102° 22' 17.32" E                        :LONGITUDE
GDAT .                                                 :GeoDetic Datum
#-----------------------------------------------------------------------------
~PARAMETER INFORMATION
#MNEM.UNIT    VALUE                      DESCRIPTION
#---- -----   --------------------       ------------------------
RUN  .          S2R2                     :RUN NUMBER
PDAT .        MSL                        :Permanent Datum
EPD  .C3           0.000000              :Elevation of Permanent Datum above Mean Sea Level
LMF  .          DF                       :Logging Measured From (Name of Logging Elevation Reference)
APD  .M         1748.500000              :Elevation of Depth Reference (LMF) above Permanent Datum
#-----------------------------------------------------------------------------
~CURVE INFORMATION
#MNEM.UNIT   API CODE                                  DESCRIPTION
#---- -----  --------                                  -----------------------
DEPT .M                                                :DEPTH (BOREHOLE) {F10.4}
ANOR .M/S2                                             :Acceleration Computed Norm (vector length) {F13.4}
AX   .M/S2                                             :Acceleration X-Axis {F13.4}
AY   .M/S2                                             :Acceleration Y-Axis {F13.4}
AZ   .M/S2                                             :Acceleration Z-Axis {F13.4}
FINC .DEG                                              :Magnetic Field Inclination {F13.4}
FNOR .OER                                              :Magnetic Field Intensity Computed Norm {F13.4}
FX   .OER                                              :Magnetometer X-Axis {F13.4}
FY   .OER                                              :Magnetometer Y-Axis {F13.4}
FZ   .OER                                              :Magnetometer Z-Axis {F13.4}
GR_EDTC.GAPI                                           :Gamma Ray {F13.4}
HAZI .DEG                                              :Hole Azimuth Relative to True North {F13.4}
P1AZ .DEG                                              :Pad 1 Azimuth in Horizontal Plane (0 = True North) {F13.4}
PP   .                                                 :Pad Pressure {F13.4}
RB   .DEG                                              :Relative Bearing {F13.4}
TENS .LBF                                              :Cable Tension {F13.4}
TVD  .M                                                :True Vertical Depth {F13.4}
#-----------------------------------------------------------------------------
# 
#     DEPT        ANOR         AX           AY           AZ           FINC         FNOR         FX           FY           FZ         GR_EDTC        HAZI         P1AZ         PP           RB           TENS         TVD
#
~A  
# ...
 1871.0000       9.7831      -6.8528      -0.4984       6.9228     -25.0411       0.4366      -0.0887       0.2744      -0.3276      41.8988     225.2454     219.3688      22.0059     355.8177    3443.7859    1559.7338
 1872.0000       9.7824      -6.9084      -0.4615       6.9796     -25.0515       0.4365      -0.0867       0.2750      -0.3276      57.6036     225.2189     219.6983      21.6078     356.0728    3490.9527    1560.4615
 1873.0000       9.7831      -6.8797      -0.3163       6.9179     -25.0490       0.4366      -0.0808       0.2767      -0.3277      43.3224     225.2099     221.3819      23.4385     357.2791    3444.6930    1561.1731
 1874.0000       9.7810      -6.8669       0.2449       6.7090     -25.0263       0.4367      -0.0593       0.2821      -0.3279      28.4545     225.1170     227.7229      22.5351       1.8522    3394.1746    1561.8954
 1875.0000       9.7834      -6.8660       0.3573       7.1023     -25.0256       0.4368      -0.0554       0.2822      -0.3289      27.7359     224.9941     229.5450      22.6760       3.2387    3432.6530    1562.6195
 1876.0000       9.7823      -6.9052       0.3335       7.0858     -25.0264       0.4365      -0.0563       0.2819      -0.3287      35.0758     224.9858     228.6628      22.5825       2.6148    3446.5965    1563.3292
 1877.0000       9.7814      -6.8692       0.4096       6.8412     -25.0100       0.4361      -0.0538       0.2813      -0.3288      27.9309     224.8832     228.8276      21.2446       2.8057    3430.4786    1564.0520
 1878.0000       9.7822      -6.8636       0.5678       7.0114     -25.0126       0.4363      -0.0470       0.2826      -0.3291      24.7181     224.7579     230.7383      22.3363       4.2589    3447.8092    1564.7730
 1879.0000       9.7820      -6.8730       0.0568       6.9269     -25.0013       0.4363      -0.0689       0.2776      -0.3294      42.0652     224.6637     227.4681      21.2664       1.9967    3396.5139    1565.4911
 1880.0000       9.7825      -6.8262      -0.7515       6.7365     -25.0368       0.4361      -0.1015       0.2673      -0.3292      59.6530     224.6519     215.7020      19.7797     353.6064    3434.8308    1566.2128
 1881.0000       9.7843      -6.7758      -1.3037       7.1551     -25.0696       0.4359      -0.1199       0.2592      -0.3292      53.9968     224.6405     208.4120      20.6961     348.3171    3443.0347    1566.9308
 1882.0000       9.7818      -6.8004      -1.1506       6.8606     -25.0717       0.4360      -0.1153       0.2604      -0.3301      73.0243     224.4815     210.0812      20.1913     349.6726    3465.2513    1567.6488
 1883.0000       9.7839      -6.8761      -0.5366       7.0372     -25.0705       0.4360      -0.0910       0.2700      -0.3299      74.6149     224.3561     217.4013      20.3113     355.0537    3474.0664    1568.3840
 1884.0000       9.7822      -6.5866      -1.0439       7.3043     -25.0386       0.4362      -0.1082       0.2627      -0.3305      67.5749     224.2589     212.3910      19.0213     351.5282    3605.8327    1569.1066
 1885.0000       9.7832      -6.9155      -0.0605       6.8348     -25.0326       0.4363      -0.0730       0.2742      -0.3314      65.6777     224.2628     225.6895      21.7615       1.0110    3469.7001    1569.7944
 1886.0000       9.7832      -6.8977      -0.5452       7.1270     -25.0624       0.4361      -0.0903       0.2698      -0.3302      48.1495     224.3779     216.4359      21.3386     354.3626    3497.6124    1570.5381
 1887.0000       9.7827      -6.9217       0.3352       6.9222     -25.0373       0.4363      -0.0553       0.2794      -0.3308      54.3572     224.4062     228.0691      21.3101       2.5882    3489.6389    1571.2499
 1888.0000       9.7798      -6.8664       0.9046       6.8637     -25.0307       0.4364      -0.0322       0.2822      -0.3311      66.6082     224.3883     233.9691      22.0272       6.7916    3433.8839    1571.9726
 1889.0000       9.7825      -6.9554       0.3526       6.6481     -25.0271       0.4364      -0.0543       0.2793      -0.3311      64.0302     224.3665     228.8139      20.7110       3.1385    3508.9557    1572.6978
 1890.0000       9.7815      -6.9374       0.3642       6.8414     -25.0325       0.4364      -0.0542       0.2788      -0.3311      72.0927     224.3248     229.2747      22.0354       3.4912    3501.6079    1573.4200
 1891.0000       9.7818      -6.8845       0.7592       6.8160     -25.0273       0.4364      -0.0376       0.2816      -0.3313      72.6199     224.3552     233.8568      22.5791       6.7247    3430.6909    1574.1354
 1892.0000       9.7813      -6.8983       0.7591       6.8794     -25.0141       0.4364      -0.0385       0.2815      -0.3313      62.2269     224.3221     233.6417      22.2993       6.5947    3462.5420    1574.8550
 1893.0000       9.7803      -6.8644       0.8731       6.9620     -25.0179       0.4364      -0.0334       0.2813      -0.3318      84.2433     224.2585     234.7814      22.8627       7.4533    3457.2497    1575.5710
 1894.0000       9.7810      -6.8461       1.0383       6.7554     -25.0182       0.4364      -0.0268       0.2830      -0.3312      83.3886     224.3135     235.9911      22.7547       8.2664    3461.5114    1576.3036
 1895.0000       9.7807      -6.9426       0.5958       6.8385     -25.0160       0.4365      -0.0428       0.2804      -0.3319      73.0020     224.2786     231.5835      23.5217       5.1391    3460.3646    1577.0261
 1896.0000       9.7809      -6.9354       0.6711       6.9770     -25.0306       0.4365      -0.0408       0.2804      -0.3316      74.3664     224.2759     232.5530      22.1630       5.8260    3463.0239    1577.7694
 1897.0000       9.7818      -6.9396       0.6108       6.7852     -25.0017       0.4366      -0.0431       0.2803      -0.3320      58.8851     224.2189     231.6047      23.5128       5.1938    3423.8180    1578.4643
 1898.0000       9.7812      -6.9667       0.4702       6.8855     -24.9900       0.4367      -0.0500       0.2792      -0.3322      44.8577     224.1719     230.2792      22.7638       4.2931    3438.7550    1579.1905
 1899.0000       9.7814      -6.9534       0.3887       6.8588     -24.9910       0.4369      -0.0526       0.2793      -0.3318      50.7298     224.2247     228.3884      20.6933       2.9250    3481.9667    1579.9156
 1900.0000       9.7812      -6.8946       0.9012       6.9952     -24.9982       0.4369      -0.0322       0.2823      -0.3319      54.0089     224.2741     234.4163      21.1549       7.1655    3436.1759    1580.6416
 1901.0000       9.7810      -6.8829       1.0698       6.9433     -24.9909       0.4370      -0.0254       0.2836      -0.3317      60.2785     224.3220     236.4539      20.8255       8.5954    3432.4017    1581.3726
 1902.0000       9.7806      -6.9120       0.8178       6.8522     -25.0127       0.4370      -0.0357       0.2820      -0.3319      41.1319     224.3265     233.9783      21.2458       6.8189    3434.1290    1582.0821
 1903.0000       9.7812      -6.9053       0.8077       6.7771     -25.0223       0.4371      -0.0363       0.2820      -0.3320      46.4426     224.2542     233.4587      21.1628       6.5068    3403.3212    1582.7941
 1904.0000       9.7825      -6.9265       0.5041       6.8403     -24.9997       0.4374      -0.0476       0.2802      -0.3325      65.9807     224.1202     230.1827      20.9195       4.2772    3470.5155    1583.5244
 1905.0000       9.7823      -6.9203      -0.2022       7.0245     -25.0317       0.4375      -0.0788       0.2716      -0.3340      86.5604     223.9552     223.1679      21.3692     359.4455    3459.5251    1584.2803
 1906.0000       9.7841      -6.7986      -1.4291       6.9391     -25.0964       0.4378      -0.1250       0.2543      -0.3335      70.3995     224.0016     207.2025      22.3263     347.9855    3502.7116    1584.9756
 1907.0000       9.7820      -6.8690      -0.8166       7.1225     -25.0916       0.4399      -0.1029       0.2652      -0.3348      81.4149     224.0934     214.6377      21.5124     353.2944    3538.0577    1585.7120
