~VERSION INFORMATION
VERS.           2.0   :CWLS Log ASCII Standard - VERSION 2.0
WRAP.           NO    :One Line per depth step
PROD.  Schlumberger   :LAS Producer
PROG.  DLIS to ASCII 19C2-270                          :LAS Program name and version
CREA.        2017/01/08 14:29                          :LAS Creation date {YYYY/MM/DD hh:mm}
DLIS_CREA.  2017-Jan-08 14:00                          :DLIS Creation date and time {YYYY-MMM-DD hh:mm}
SOURCE.     BDN-A1_12.25inch_S2R2_FMI-08-Jan-2017_Main.dlis  :DLIS File Name
FILE-ID.     ConCu_R05_L003Up_FBST                     :File Identification Number
#--------------------------------------------------
~WELL INFORMATION
#MNEM.UNIT      DATA             DESCRIPTION
#---- ------ --------------   -----------------------------
STRT .M      1316.0000       :START DEPTH     
STOP .M      2159.0000       :STOP DEPTH     
STEP .M       1.0000         :STEP     
NULL .          -999.25      :NULL VALUE
COMP .        PT. Pertamina Geothermal Energy          :COMPANY
WELL .        BDN-A/1                                  :WELL
FLD  .        Bukit Daun                               :FIELD
LOC  .        Bukit Daun                               :LOCATION
CNTY .        N-110 M1/18                              :COUNTY
STAT .        Bengkulu                                 :STATE
CTRY .        Indonesia                                :COUNTRY
API  .                                                 :API NUMBER
UWI  .                                                 :UNIQUE WELL ID
DATE .        08-Jan-2017                              :LOG DATE {DD-MMM-YYYY}
SRVC .        Schlumberger                             :SERVICE COMPANY
LATI .DEG     3° 21' 20.38" S                          :LATITUDE
LONG .DEG     102° 22' 17.32" E                        :LONGITUDE
GDAT .                                                 :GeoDetic Datum
#-----------------------------------------------------------------------------
~PARAMETER INFORMATION
#MNEM.UNIT    VALUE                      DESCRIPTION
#---- -----   --------------------       ------------------------
RUN  .          S2R2                     :RUN NUMBER
PDAT .        MSL                        :Permanent Datum
EPD  .C3           0.000000              :Elevation of Permanent Datum above Mean Sea Level
LMF  .          DF                       :Logging Measured From (Name of Logging Elevation Reference)
APD  .M         1748.500000              :Elevation of Depth Reference (LMF) above Permanent Datum
#-----------------------------------------------------------------------------
~CURVE INFORMATION
#MNEM.UNIT   API CODE                                  DESCRIPTION
#---- -----  --------                                  -----------------------
DEPT .M                                                :DEPTH (BOREHOLE) {F10.4}
ANOR .M/S2                                             :Acceleration Computed Norm (vector length) {F13.4}
AX   .M/S2                                             :Acceleration X-Axis {F13.4}
AY   .M/S2                                             :Acceleration Y-Axis {F13.4}
AZ   .M/S2                                             :Acceleration Z-Axis {F13.4}
FINC .DEG                                              :Magnetic Field Inclination {F13.4}
FNOR .OER                                              :Magnetic Field Intensity Computed Norm {F13.4}
FX   .OER                                              :Magnetometer X-Axis {F13.4}
FY   .OER                                              :Magnetometer Y-Axis {F13.4}
FZ   .OER                                              :Magnetometer Z-Axis {F13.4}
GR_EDTC.GAPI                                           :Gamma Ray {F13.4}
HAZI .DEG                                              :Hole Azimuth Relative to True North {F13.4}
P1AZ .DEG                                              :Pad 1 Azimuth in Horizontal Plane (0 = True North) {F13.4}
PP   .                                                 :Pad Pressure {F13.4}
RB   .DEG                                              :Relative Bearing {F13.4}
TENS .LBF                                              :Cable Tension {F13.4}
TVD  .M                                                :True Vertical Depth {F13.4}
#-----------------------------------------------------------------------------
# 
#     DEPT        ANOR         AX           AY           AZ           FINC         FNOR         FX           FY           FZ         GR_EDTC        HAZI         P1AZ         PP           RB           TENS         TVD
#
~A  
# ...
 1649.0000       9.7836      -6.4459      -0.9903       7.3954     -24.9767       0.4363      -0.1259       0.2653      -0.3227      69.9848     225.4213     214.0070      26.7122     351.4461    3281.5631    1395.2241
 1650.0000       9.7826      -6.4660      -0.9876       7.3632     -24.9708       0.4363      -0.1250       0.2657      -0.3229      71.3924     225.4810     213.9462      26.3323     351.3669    3278.2007    1395.9722
 1651.0000       9.7830      -6.4619      -1.0030       7.1525     -24.9783       0.4363      -0.1253       0.2654      -0.3229      73.5342     225.5615     213.8705      27.1377     351.2557    3250.8991    1396.7326
 1652.0000       9.7833      -6.4984      -0.8950       7.2965     -24.9726       0.4363      -0.1195       0.2688      -0.3221      70.3354     225.6750     215.2378      26.2227     352.2103    3240.9501    1397.4800
 1653.0000       9.7836      -6.5070      -0.9288       7.2783     -24.9756       0.4363      -0.1216       0.2680      -0.3222      73.7848     225.7038     214.3947      27.0883     351.5567    3260.7936    1398.2364
 1654.0000       9.7841      -6.5032      -0.7810       7.3642     -24.9822       0.4363      -0.1152       0.2705      -0.3224      71.4716     225.6865     215.7820      26.4070     352.6201    3269.3758    1399.0110
 1655.0000       9.7828      -6.5485      -0.6745       7.0728     -24.9721       0.4363      -0.1105       0.2724      -0.3225      69.1473     225.6598     217.6935      27.5018     354.0752    3238.2590    1399.7418
 1656.0000       9.7833      -6.5526      -0.3796       7.2292     -24.9790       0.4363      -0.0986       0.2770      -0.3224      70.4224     225.6576     220.5037      27.1740     356.1727    3243.8000    1400.5019
 1657.0000       9.7833      -6.5698      -0.2811       7.3767     -24.9649       0.4364      -0.0927       0.2793      -0.3225      65.0284     225.6569     222.2239      26.9752     357.4527    3305.4439    1401.2598
 1658.0000       9.7833      -6.5793       0.0702       7.3603     -24.9787       0.4364      -0.0773       0.2836      -0.3228      75.0395     225.7342     226.5632      27.1456       0.6142    3256.9300    1402.0126
 1659.0000       9.7832      -6.5663       0.4426       7.2264     -24.9694       0.4364      -0.0615       0.2880      -0.3223      75.4242     225.7773     230.3537      25.9566       3.3911    3221.9409    1402.7597
 1660.0000       9.7820      -6.5563       0.3736       7.3291     -24.9492       0.4365      -0.0648       0.2873      -0.3224      70.7230     225.7750     230.2224      25.6079       3.2949    3217.9527    1403.5135
 1661.0000       9.7819      -6.5723      -0.0519       7.0939     -24.9640       0.4364      -0.0839       0.2819      -0.3223      77.1000     225.7280     225.3819      25.6376     341.7910    3233.1431    1404.2600
 1662.0000       9.7830      -6.5122      -0.8465       7.3173     -24.9751       0.4362      -0.1184       0.2688      -0.3224      74.7452     225.6489     216.0088      25.9795     352.8224    3229.2192    1405.0197
 1663.0000       9.7828      -6.3970      -1.5248       7.1889     -24.9763       0.4362      -0.1454       0.2550      -0.3226      74.1123     225.6372     208.7677      26.4616     347.3279    3292.8713    1405.7785
 1664.0000       9.7830      -6.3902      -1.4433       7.0699     -24.9843       0.4362      -0.1414       0.2574      -0.3224      66.0580     225.6800     208.8185      24.7509     347.3359    3299.4926    1406.5209
 1665.0000       9.7831      -6.4330      -1.3111       7.1109     -25.0097       0.4361      -0.1359       0.2604      -0.3223      76.8520     225.7359     209.8345      24.5892     348.0796    3238.4498    1407.2699
 1666.0000       9.7835      -6.4500      -1.2843       7.4252     -25.0016       0.4362      -0.1337       0.2621      -0.3220      73.9016     225.8331     211.0823      23.9510     348.9689    3271.6795    1408.0461
 1667.0000       9.7825      -6.4556      -1.3441       7.3856     -25.0008       0.4361      -0.1352       0.2617      -0.3217      70.0384     225.9482     210.5177      23.9954     348.4627    3261.7330    1408.7877
 1668.0000       9.7828      -6.4960      -1.1060       7.2881     -24.9982       0.4362      -0.1256       0.2667      -0.3214      72.5301     226.0159     212.9978      24.6313     350.3007    3261.6737    1409.5341
 1669.0000       9.7830      -6.5367      -0.8142       7.2765     -24.9837       0.4363      -0.1139       0.2722      -0.3214      77.7299     226.0614     215.7749      25.8155     352.3582    3228.0061    1410.2898
 1670.0000       9.7825      -6.5856      -0.1277       7.3363     -24.9760       0.4364      -0.0843       0.2830      -0.3211      75.1660     226.1503     224.6360      27.0451     358.8811    3238.4312    1411.0438
 1671.0000       9.7818      -6.5602       0.7032       7.1476     -24.9660       0.4366      -0.0470       0.2921      -0.3206      76.8359     226.2493     233.8350      26.0922       5.6147    3220.6460    1411.7922
 1672.0000       9.7819      -6.5258       1.0690       7.1486     -24.9479       0.4367      -0.0316       0.2940      -0.3215      74.9129     226.1916     238.6927      25.8916       9.2899    3280.2128    1412.5446
 1673.0000       9.7816      -6.4296       1.2598       7.0018     -24.9396       0.4367      -0.0240       0.2943      -0.3219      75.1457     226.0702     240.3919      26.9367      10.6634    3299.0102    1413.2957
 1674.0000       9.7807      -6.4674       1.4961       7.2130     -24.9274       0.4368      -0.0131       0.2948      -0.3222      38.4354     226.0130     243.3013      25.2454      12.9197    3266.7375    1414.0515
 1675.0000       9.7812      -6.4573       1.4005       7.1171     -24.9259       0.4368      -0.0167       0.2946      -0.3219      34.8593     226.0127     242.4745      26.8495      12.2859    3231.0371    1414.7891
 1676.0000       9.7807      -6.4821       1.2581       7.1389     -24.9248       0.4368      -0.0234       0.2941      -0.3220      39.5844     226.0265     241.3259      26.5131      11.3994    3217.6990    1415.5494
 1677.0000       9.7825      -6.5179       1.0467       7.0757     -24.9479       0.4367      -0.0326       0.2931      -0.3221      72.2715     226.0675     238.1898      26.8764       8.9982    3185.8503    1416.2945
 1678.0000       9.7821      -6.4707       1.3172       7.2464     -24.9383       0.4368      -0.0212       0.2948      -0.3216      76.5005     226.1052     240.8283      28.0527      10.9665    3243.7628    1417.0574
 1679.0000       9.7823      -6.4112       1.6506       7.1781     -24.9436       0.4368      -0.0056       0.2957      -0.3217      87.7666     226.1168     245.4579      29.0789      14.5171    3245.8650    1417.7997
 1680.0000       9.7804      -6.4073       1.6338       7.3446     -24.9245       0.4368      -0.0068       0.2953      -0.3217      83.4230     226.0739     245.1470      29.5962      14.3149    3250.5975    1418.5536
 1681.0000       9.7822      -6.3658       1.5909       7.1792     -24.9213       0.4369      -0.0069       0.2961      -0.3214      80.6744     226.1317     245.0603      28.3460      14.2130    3270.1604    1419.2989
 1682.0000       9.7813      -6.3768       1.7046       7.1209     -24.9256       0.4369      -0.0036       0.2958      -0.3218      83.4139     226.1259     245.9146      28.3353      14.8761    3276.5486    1420.0536
 1683.0000       9.7815      -6.4437       1.5711       7.2120     -24.9447       0.4369      -0.0088       0.2953      -0.3217      80.8524     226.1310     244.3362      29.4249      13.6480    3276.9316    1420.8116
 1684.0000       9.7808      -6.4282       1.4537       7.1872     -24.9281       0.4369      -0.0145       0.2953      -0.3215      80.8268     226.1281     243.3915      28.6555      12.9323    3227.4626    1421.5605
 1685.0000       9.7820      -6.4620       1.2984       7.1649     -24.9302       0.4367      -0.0223       0.2948      -0.3215      78.7236     226.1070     241.6032      28.8173      11.5863    3283.3718    1422.3218
