~VERSION INFORMATION
VERS.           2.0   :CWLS Log ASCII Standard - VERSION 2.0
WRAP.           NO    :One Line per depth step
PROD.  Schlumberger   :LAS Producer
PROG.  DLIS to ASCII 19C2-270                          :LAS Program name and version
CREA.        2017/01/08 14:29                          :LAS Creation date {YYYY/MM/DD hh:mm}
DLIS_CREA.  2017-Jan-08 14:00                          :DLIS Creation date and time {YYYY-MMM-DD hh:mm}
SOURCE.     BDN-A1_12.25inch_S2R2_FMI-08-Jan-2017_Main.dlis  :DLIS File Name
FILE-ID.     ConCu_R05_L003Up_FBST                     :File Identification Number
#--------------------------------------------------
~WELL INFORMATION
#MNEM.UNIT      DATA             DESCRIPTION
#---- ------ --------------   -----------------------------
STRT .M      1316.0000       :START DEPTH     
STOP .M      2159.0000       :STOP DEPTH     
STEP .M       1.0000         :STEP     
NULL .          -999.25      :NULL VALUE
COMP .        PT. Pertamina Geothermal Energy          :COMPANY
WELL .        BDN-A/1                                  :WELL
FLD  .        Bukit Daun                               :FIELD
LOC  .        Bukit Daun                               :LOCATION
CNTY .        N-110 M1/18                              :COUNTY
STAT .        Bengkulu                                 :STATE
CTRY .        Indonesia                                :COUNTRY
API  .                                                 :API NUMBER
UWI  .                                                 :UNIQUE WELL ID
DATE .        08-Jan-2017                              :LOG DATE {DD-MMM-YYYY}
SRVC .        Schlumberger                             :SERVICE COMPANY
LATI .DEG     3° 21' 20.38" S                          :LATITUDE
LONG .DEG     102° 22' 17.32" E                        :LONGITUDE
GDAT .                                                 :GeoDetic Datum
#-----------------------------------------------------------------------------
~PARAMETER INFORMATION
#MNEM.UNIT    VALUE                      DESCRIPTION
#---- -----   --------------------       ------------------------
RUN  .          S2R2                     :RUN NUMBER
PDAT .        MSL                        :Permanent Datum
EPD  .C3           0.000000              :Elevation of Permanent Datum above Mean Sea Level
LMF  .          DF                       :Logging Measured From (Name of Logging Elevation Reference)
APD  .M         1748.500000              :Elevation of Depth Reference (LMF) above Permanent Datum
#-----------------------------------------------------------------------------
~CURVE INFORMATION
#MNEM.UNIT   API CODE                                  DESCRIPTION
#---- -----  --------                                  -----------------------
DEPT .M                                                :DEPTH (BOREHOLE) {F10.4}
ANOR .M/S2                                             :Acceleration Computed Norm (vector length) {F13.4}
AX   .M/S2                                             :Acceleration X-Axis {F13.4}
AY   .M/S2                                             :Acceleration Y-Axis {F13.4}
AZ   .M/S2                                             :Acceleration Z-Axis {F13.4}
FINC .DEG                                              :Magnetic Field Inclination {F13.4}
FNOR .OER                                              :Magnetic Field Intensity Computed Norm {F13.4}
FX   .OER                                              :Magnetometer X-Axis {F13.4}
FY   .OER                                              :Magnetometer Y-Axis {F13.4}
FZ   .OER                                              :Magnetometer Z-Axis {F13.4}
GR_EDTC.GAPI                                           :Gamma Ray {F13.4}
HAZI .DEG                                              :Hole Azimuth Relative to True North {F13.4}
P1AZ .DEG                                              :Pad 1 Azimuth in Horizontal Plane (0 = True North) {F13.4}
PP   .                                                 :Pad Pressure {F13.4}
RB   .DEG                                              :Relative Bearing {F13.4}
TENS .LBF                                              :Cable Tension {F13.4}
TVD  .M                                                :True Vertical Depth {F13.4}
#-----------------------------------------------------------------------------
# 
#     DEPT        ANOR         AX           AY           AZ           FINC         FNOR         FX           FY           FZ         GR_EDTC        HAZI         P1AZ         PP           RB           TENS         TVD
#
~A  
# ...
 1464.0000       9.7837      -6.4911      -0.7074       7.2887     -24.8703       0.4380      -0.1153       0.2714      -0.3239      10.3527     225.3655     217.1636      29.0081     353.8741    2932.0861    1254.9640
 1465.0000       9.7835      -6.5026      -0.6124       7.2246     -24.8659       0.4380      -0.1115       0.2730      -0.3240      10.8008     225.3290     218.0988      28.0248     354.6037    2946.6546    1255.7180
 1466.0000       9.7834      -6.4914      -0.7165       7.2682     -24.8650       0.4380      -0.1151       0.2710      -0.3242       6.6983     225.2998     217.1483      28.8996     353.9171    2906.3373    1256.4752
 1467.0000       9.7838      -6.5246      -0.4307       7.2388     -24.8729       0.4381      -0.1039       0.2760      -0.3240      10.0236     225.3503     219.8615      28.6194     355.9118    2913.8969    1257.2300
 1468.0000       9.7836      -6.5285      -0.0496       7.2373     -24.8638       0.4381      -0.0866       0.2819      -0.3240      13.3996     225.3535     224.4983      29.2122     359.3635    2924.9046    1257.9796
 1469.0000       9.7833      -6.5413       0.0034       7.1320     -24.8553       0.4381      -0.0851       0.2823      -0.3239       9.7172     225.3371     225.4467      28.7484      38.8217    2896.0009    1258.7326
 1470.0000       9.7828      -6.5402       0.0682       7.2964     -24.8549       0.4380      -0.0820       0.2835      -0.3239      10.7661     225.3418     225.9563      28.7728       0.4572    2901.6029    1259.4914
 1471.0000       9.7832      -6.5420       0.0079       7.2673     -24.8585       0.4380      -0.0845       0.2822      -0.3241      13.2195     225.3228     225.4944      28.4453       0.1277    2900.6182    1260.2418
 1472.0000       9.7825      -6.5430      -0.1288       7.2310     -24.8548       0.4381      -0.0901       0.2803      -0.3243      16.9714     225.2994     223.9276      28.5597     358.9801    2909.3318    1260.9968
 1473.0000       9.7836      -6.5491      -0.1883       7.2595     -24.8845       0.4379      -0.0923       0.2798      -0.3244      37.3079     225.3033     223.4969      28.0610     358.6574    2915.6201    1261.7489
 1474.0000       9.7835      -6.5391      -0.4724       7.3089     -24.9122       0.4378      -0.1040       0.2751      -0.3241      78.9732     225.3249     220.0794      28.8659     356.0989    2903.1965    1262.4963
 1475.0000       9.7832      -6.5446      -0.3861       7.2717     -24.9437       0.4377      -0.1006       0.2762      -0.3246      83.2611     225.3357     220.4266      29.0297     356.3522    2928.5017    1263.2524
 1476.0000       9.7831      -6.5302      -0.5966       7.2311     -24.9604       0.4369      -0.1078       0.2725      -0.3241      74.9754     225.3596     218.5231      29.6925     354.9176    2903.0984    1264.0003
 1477.0000       9.7833      -6.5353      -0.5414       7.3234     -24.7601       0.4368      -0.1106       0.2736      -0.3241     103.3250     225.2611     218.4451      29.1388     354.9330    2929.0915    1264.7560
 1478.0000       9.7830      -6.5355      -0.6749       7.3231     -24.6156       0.4365      -0.1129       0.2703      -0.3236      90.9226     225.1670     217.4300      29.7135     354.2457    2922.7493    1265.5119
 1479.0000       9.7835      -6.4943      -0.8146       7.1734     -24.2103       0.4384      -0.1226       0.2688      -0.3228     105.0169     225.1449     215.4680      29.1222     352.7920    2924.9065    1266.2590
 1480.0000       9.7835      -6.5041      -0.8148       7.1254     -24.1451       0.4412      -0.1233       0.2734      -0.3256     121.4716     225.2943     216.0340      28.5302     353.1020    2916.7509    1267.0059
 1481.0000       9.7830      -6.4907      -0.9400       7.1753     -24.4317       0.4402      -0.1281       0.2686      -0.3254      94.4190     225.2548     214.5646      28.6023     352.0226    2883.9012    1267.7549
 1482.0000       9.7840      -6.3396      -1.6121       7.1120     -24.7410       0.4375      -0.1514       0.2510      -0.3229     101.0643     225.2517     206.4845      27.9490     345.8338    2961.3803    1268.5186
 1483.0000       9.7838      -6.3103      -1.7203       7.2266     -24.8485       0.4373      -0.1558       0.2490      -0.3244      98.0818     225.2228     204.7173      28.1733     344.4823    2965.4279    1269.2635
 1484.0000       9.7830      -6.3537      -1.6485       7.2924     -24.8906       0.4376      -0.1525       0.2509      -0.3246     115.9113     225.2359     205.5380      27.6594     345.1199    2945.6773    1270.0166
 1485.0000       9.7838      -6.3821      -1.5153       7.1947     -24.9443       0.4376      -0.1467       0.2545      -0.3245     125.4556     225.2383     206.7238      28.2226     346.0360    2931.1169    1270.7662
 1486.0000       9.7825      -6.4649      -1.1557       7.4798     -24.9220       0.4376      -0.1320       0.2623      -0.3243     147.1224     225.2611     211.4070      27.9495     349.6291    2953.1788    1271.5256
 1487.0000       9.7836      -6.4654      -1.1193       7.0765     -24.9586       0.4375      -0.1302       0.2632      -0.3243     101.9530     225.3260     212.3997      28.4410     350.3382    2959.2081    1272.2691
 1488.0000       9.7831      -6.4895      -0.9796       7.1986     -24.9659       0.4374      -0.1238       0.2665      -0.3241      97.6637     225.4054     214.0206      28.4409     351.5110    2973.8677    1273.0204
 1489.0000       9.7845      -6.5454      -0.6339       7.2737     -24.9491       0.4374      -0.1097       0.2725      -0.3240     117.0525     225.4203     217.3983      29.1906     354.0362    3011.4840    1273.7773
 1490.0000       9.7836      -6.5443      -0.4921       7.1792     -24.9478       0.4374      -0.1035       0.2753      -0.3240     131.1105     225.4254     219.4311      29.0074     355.5493    2997.8279    1274.5246
 1491.0000       9.7835      -6.5552      -0.3239       7.3980     -24.9438       0.4374      -0.0968       0.2776      -0.3239     106.9302     225.4263     221.3404      29.6690     356.9688    3005.3968    1275.2797
 1492.0000       9.7833      -6.5754      -0.2200       7.3026     -24.9470       0.4374      -0.0919       0.2792      -0.3239      65.2765     225.4522     222.7690      29.9050     358.0106    2957.7841    1276.0275
 1493.0000       9.7834      -6.5691      -0.2151       7.2415     -24.9508       0.4374      -0.0916       0.2793      -0.3241      84.8480     225.4662     223.0391      29.9734     358.2016    2951.9927    1276.7798
 1494.0000       9.7829      -6.5576      -0.1224       7.2962     -24.9518       0.4373      -0.0877       0.2803      -0.3238     121.3206     225.4718     223.7197      29.4466     358.7019    2959.6936    1277.5356
 1495.0000       9.7831      -6.5738      -0.2826       7.2703     -24.9502       0.4373      -0.0950       0.2782      -0.3238     121.7668     225.4762     222.3586      30.3038     357.6887    2962.0299    1278.2847
 1496.0000       9.7818      -6.5572      -0.2935       7.2597     -24.9496       0.4372      -0.0967       0.2773      -0.3237     109.2614     225.4777     221.4637      29.5818     357.0220    2927.1401    1279.0389
 1497.0000       9.7828      -6.5265      -0.7836       7.3244     -24.9633       0.4370      -0.1156       0.2704      -0.3234      89.1032     225.5060     216.0759      30.0657     352.9786    2952.6994    1279.7973
 1498.0000       9.7831      -6.4732      -1.0307       7.1792     -24.9744       0.4369      -0.1260       0.2653      -0.3235     109.8127     225.5031     213.3893      29.6278     350.9534    2923.1239    1280.5324
 1499.0000       9.7832      -6.4840      -0.9631       7.1200     -24.9802       0.4368      -0.1232       0.2668      -0.3232      88.9422     225.5123     213.5539      29.8350     351.0692    2944.0921    1281.2952
 1500.0000       9.7834      -6.4575      -1.1733       7.3611     -24.9839       0.4368      -0.1314       0.2628      -0.3232     116.8867     225.4799     211.3453      29.9861     349.4170    2964.4370    1282.0485
