~VERSION INFORMATION
VERS.           2.0   :CWLS Log ASCII Standard - VERSION 2.0
WRAP.           NO    :One Line per depth step
PROD.  Schlumberger   :LAS Producer
PROG.  DLIS to ASCII 19C2-270                          :LAS Program name and version
CREA.        2017/01/08 14:29                          :LAS Creation date {YYYY/MM/DD hh:mm}
DLIS_CREA.  2017-Jan-08 14:00                          :DLIS Creation date and time {YYYY-MMM-DD hh:mm}
SOURCE.     BDN-A1_12.25inch_S2R2_FMI-08-Jan-2017_Main.dlis  :DLIS File Name
FILE-ID.     ConCu_R05_L003Up_FBST                     :File Identification Number
#--------------------------------------------------
~WELL INFORMATION
#MNEM.UNIT      DATA             DESCRIPTION
#---- ------ --------------   -----------------------------
STRT .M      1316.0000       :START DEPTH     
STOP .M      2159.0000       :STOP DEPTH     
STEP .M       1.0000         :STEP     
NULL .          -999.25      :NULL VALUE
COMP .        PT. Pertamina Geothermal Energy          :COMPANY
WELL .        BDN-A/1                                  :WELL
FLD  .        Bukit Daun                               :FIELD
LOC  .        Bukit Daun                               :LOCATION
CNTY .        N-110 M1/18                              :COUNTY
STAT .        Bengkulu                                 :STATE
CTRY .        Indonesia                                :COUNTRY
API  .                                                 :API NUMBER
UWI  .                                                 :UNIQUE WELL ID
DATE .        08-Jan-2017                              :LOG DATE {DD-MMM-YYYY}
SRVC .        Schlumberger                             :SERVICE COMPANY
LATI .DEG     3° 21' 20.38" S                          :LATITUDE
LONG .DEG     102° 22' 17.32" E                        :LONGITUDE
GDAT .                                                 :GeoDetic Datum
#-----------------------------------------------------------------------------
~PARAMETER INFORMATION
#MNEM.UNIT    VALUE                      DESCRIPTION
#---- -----   --------------------       ------------------------
RUN  .          S2R2                     :RUN NUMBER
PDAT .        MSL                        :Permanent Datum
EPD  .C3           0.000000              :Elevation of Permanent Datum above Mean Sea Level
LMF  .          DF                       :Logging Measured From (Name of Logging Elevation Reference)
APD  .M         1748.500000              :Elevation of Depth Reference (LMF) above Permanent Datum
#-----------------------------------------------------------------------------
~CURVE INFORMATION
#MNEM.UNIT   API CODE                                  DESCRIPTION
#---- -----  --------                                  -----------------------
DEPT .M                                                :DEPTH (BOREHOLE) {F10.4}
ANOR .M/S2                                             :Acceleration Computed Norm (vector length) {F13.4}
AX   .M/S2                                             :Acceleration X-Axis {F13.4}
AY   .M/S2                                             :Acceleration Y-Axis {F13.4}
AZ   .M/S2                                             :Acceleration Z-Axis {F13.4}
FINC .DEG                                              :Magnetic Field Inclination {F13.4}
FNOR .OER                                              :Magnetic Field Intensity Computed Norm {F13.4}
FX   .OER                                              :Magnetometer X-Axis {F13.4}
FY   .OER                                              :Magnetometer Y-Axis {F13.4}
FZ   .OER                                              :Magnetometer Z-Axis {F13.4}
GR_EDTC.GAPI                                           :Gamma Ray {F13.4}
HAZI .DEG                                              :Hole Azimuth Relative to True North {F13.4}
P1AZ .DEG                                              :Pad 1 Azimuth in Horizontal Plane (0 = True North) {F13.4}
PP   .                                                 :Pad Pressure {F13.4}
RB   .DEG                                              :Relative Bearing {F13.4}
TENS .LBF                                              :Cable Tension {F13.4}
TVD  .M                                                :True Vertical Depth {F13.4}
#-----------------------------------------------------------------------------
# 
#     DEPT        ANOR         AX           AY           AZ           FINC         FNOR         FX           FY           FZ         GR_EDTC        HAZI         P1AZ         PP           RB           TENS         TVD
#
~A  
# ...
 1353.0000       9.7844      -6.2170      -0.6329       7.4808     -24.7862       0.4363      -0.1277       0.2670      -0.3212      32.1742     224.9505     217.2503      25.8150     354.0639    2772.1687    1170.4921
 1354.0000       9.7834      -6.1940      -0.9042       7.5265     -24.9033       0.4368      -0.1387       0.2610      -0.3220      52.2669     224.7534     214.0667      26.5760     351.7530    2748.8300    1171.2616
 1355.0000       9.7845      -6.1937      -0.9668       7.5386     -24.9701       0.4366      -0.1383       0.2604      -0.3218      45.3575     224.7393     213.8870      25.4685     351.6409    2775.1552    1172.0353
 1356.0000       9.7849      -6.2433      -0.7531       7.4184     -24.9540       0.4364      -0.1316       0.2637      -0.3218      30.2961     224.7594     215.0404      26.8915     352.5262    2733.3163    1172.8052
 1357.0000       9.7842      -6.2472      -0.7776       7.4508     -24.9221       0.4363      -0.1312       0.2632      -0.3221      27.4254     224.6942     215.5375      25.9356     352.9612    2760.7029    1173.5822
 1358.0000       9.7838      -6.2612      -0.5570       7.4609     -24.9427       0.4363      -0.1215       0.2680      -0.3218      38.7813     224.6404     217.5749      27.2409     354.5739    2770.4560    1174.3596
 1359.0000       9.7836      -6.2682      -0.4110       7.6554     -24.8018       0.4367      -0.1168       0.2712      -0.3219      29.9831     224.6329     219.5672      26.1980     356.1127    2765.4615    1175.1245
 1360.0000       9.7838      -6.2969      -0.3705       7.5004     -24.6846       0.4359      -0.1162       0.2718      -0.3201      79.4656     224.6642     220.1339      26.6520     356.5249    2762.6185    1175.8948
 1361.0000       9.7835      -6.2704      -0.4161       7.4785     -24.7673       0.4353      -0.1168       0.2696      -0.3207     204.7978     224.6534     219.6024      26.1112     356.1255    2756.3516    1176.6658
 1362.0000       9.7837      -6.2759      -0.1608       7.5914     -24.7256       0.4369      -0.1058       0.2760      -0.3222      79.2942     224.5966     221.6475      28.1176     357.7411    2762.6067    1177.4345
 1363.0000       9.7837      -6.3076       0.1432       7.4008     -24.4106       0.4351      -0.1009       0.2792      -0.3187      39.6750     224.5964     224.7621      26.9458       0.1267    2766.8160    1178.2090
 1364.0000       9.7829      -6.3103       0.0518       7.4892     -24.8602       0.4354      -0.0920       0.2798      -0.3222      20.3118     224.9837     225.7620      27.9807       0.5949    2775.7312    1178.9792
 1365.0000       9.7837      -6.3151       0.1816       7.4657     -24.8687       0.4367      -0.0903       0.2809      -0.3221      24.9524     224.8203     225.9236      26.5465       0.8432    2782.2674    1179.7508
 1366.0000       9.7819      -6.3193       0.3342       7.3961     -24.7856       0.4369      -0.0823       0.2837      -0.3221      36.2456     224.7678     228.3831      27.5984       2.7640    2761.0025    1180.5121
 1367.0000       9.7818      -6.3003       0.4346       7.3994     -24.7547       0.4372      -0.0787       0.2848      -0.3222      24.3725     224.7201     229.2822      27.9611       3.4885    2737.4559    1181.2839
 1368.0000       9.7820      -6.3133       0.4004       7.5721     -24.7443       0.4374      -0.0802       0.2841      -0.3228      24.6090     224.6563     229.1531      28.2139       3.4376    2770.0193    1182.0525
 1369.0000       9.7825      -6.3311       0.2770       7.4888     -24.7410       0.4376      -0.0856       0.2825      -0.3231      20.6182     224.6114     227.6830      27.9619       2.3441    2780.6060    1182.8183
 1370.0000       9.7828      -6.3429      -0.0661       7.4245     -24.7524       0.4377      -0.1002       0.2776      -0.3233      25.6263     224.6347     223.3883      28.5606     359.0509    2749.5382    1183.5802
 1371.0000       9.7841      -6.3289      -0.6696       7.5184     -24.7735       0.4378      -0.1250       0.2670      -0.3239      25.2114     224.6569     217.5346      27.0326     354.5770    2771.0186    1184.3535
 1372.0000       9.7843      -6.2372      -1.4161       7.2613     -24.7897       0.4379      -0.1534       0.2516      -0.3239     116.2666     224.7482     208.3453      27.1108     347.4314    2782.6603    1185.1174
 1373.0000       9.7843      -6.2624      -1.3540       7.3415     -24.7866       0.4380      -0.1501       0.2543      -0.3234      59.9024     224.8849     208.6624      26.1800     347.6035    2735.4453    1185.8763
 1374.0000       9.7843      -6.2109      -1.6542       7.4856     -24.7989       0.4381      -0.1608       0.2476      -0.3240     207.3498     224.9505     205.2590      27.7472     344.8968    2757.8620    1186.6423
 1375.0000       9.7832      -6.2026      -1.6508       7.2003     -24.7806       0.4382      -0.1612       0.2471      -0.3240      40.4421     224.9454     205.0313      27.4102     344.7274    2750.6672    1187.4104
 1376.0000       9.7842      -6.2214      -1.6047       7.2507     -24.7847       0.4385      -0.1596       0.2483      -0.3242      34.9963     224.8643     205.6654      28.1240     345.2871    2718.8822    1188.1676
 1377.0000       9.7840      -6.2972      -1.3067       7.6181     -24.8331       0.4388      -0.1475       0.2552      -0.3249     123.8522     224.7830     208.7504      27.4959     347.7713    2790.0057    1188.9358
 1378.0000       9.7838      -6.3588      -0.8974       7.4158     -24.8387       0.4389      -0.1312       0.2639      -0.3251      72.9024     224.7329     213.6344      27.7103     351.5809    2759.6948    1189.7016
 1379.0000       9.7831      -6.3804      -0.7624       7.3502     -24.8252       0.4392      -0.1261       0.2668      -0.3255      72.5305     224.6575     215.8412      26.8052     353.3263    2772.1164    1190.4649
 1380.0000       9.7830      -6.3462      -1.0347       7.2439     -24.8792       0.4392      -0.1363       0.2606      -0.3261      85.2276     224.6133     212.3764      26.8691     350.7113    2743.6564    1191.2204
 1381.0000       9.7830      -6.2678      -1.4159       7.3164     -24.9460       0.4389      -0.1514       0.2521      -0.3253      83.9085     224.6309     207.5527      24.9978     346.9667    2751.0112    1191.9878
 1382.0000       9.7834      -6.2584      -1.5011       7.3011     -24.9416       0.4388      -0.1548       0.2507      -0.3258      98.9634     224.7242     206.5868      26.1506     346.1450    2744.6294    1192.7513
 1383.0000       9.7842      -6.2889      -1.3267       7.3486     -24.9359       0.4392      -0.1471       0.2551      -0.3263     111.0277     224.7704     208.3075      25.4946     347.4588    2746.6691    1193.5110
 1384.0000       9.7837      -6.3523      -1.0827       7.4080     -24.9403       0.4392      -0.1368       0.2608      -0.3263     104.8224     224.7948     211.7465      26.5805     350.1045    2773.0302    1194.2810
 1385.0000       9.7836      -6.3996      -0.6939       7.2264     -24.9342       0.4392      -0.1213       0.2682      -0.3261      95.3382     224.7758     215.9422      26.5036     353.3285    2753.8023    1195.0341
 1386.0000       9.7833      -6.4557      -0.1615       7.3709     -24.9295       0.4393      -0.0976       0.2780      -0.3256     103.4696     224.8165     222.4985      28.0194     358.2561    2761.8130    1195.8024
 1387.0000       9.7839      -6.4427      -0.4226       7.2072     -24.8989       0.4392      -0.1092       0.2732      -0.3260     110.0255     224.7342     220.1656      26.8888     356.5619    2738.2926    1196.5613
 1388.0000       9.7831      -6.4512      -0.2280       7.3788     -24.9001       0.4392      -0.1005       0.2765      -0.3260     137.2302     224.7210     222.2381      27.9991     358.1337    2773.4369    1197.3273
 1389.0000       9.7829      -6.4438      -0.4483       7.4174     -24.9227       0.4390      -0.1096       0.2725      -0.3261      71.0024     224.6952     219.7104      26.8599     356.2523    2773.8283    1198.0961
