~VERSION INFORMATION
VERS.           2.0   :CWLS Log ASCII Standard - VERSION 2.0
WRAP.           NO    :One Line per depth step
PROD.  Schlumberger   :LAS Producer
PROG.  DLIS to ASCII 19C2-270                          :LAS Program name and version
CREA.        2017/01/08 14:29                          :LAS Creation date {YYYY/MM/DD hh:mm}
DLIS_CREA.  2017-Jan-08 14:00                          :DLIS Creation date and time {YYYY-MMM-DD hh:mm}
SOURCE.     BDN-A1_12.25inch_S2R2_FMI-08-Jan-2017_Main.dlis  :DLIS File Name
FILE-ID.     ConCu_R05_L003Up_FBST                     :File Identification Number
#--------------------------------------------------
~WELL INFORMATION
#MNEM.UNIT      DATA             DESCRIPTION
#---- ------ --------------   -----------------------------
STRT .M      1316.0000       :START DEPTH     
STOP .M      2159.0000       :STOP DEPTH     
STEP .M       1.0000         :STEP     
NULL .          -999.25      :NULL VALUE
COMP .        PT. Pertamina Geothermal Energy          :COMPANY
WELL .        BDN-A/1                                  :WELL
FLD  .        Bukit Daun                               :FIELD
LOC  .        Bukit Daun                               :LOCATION
CNTY .        N-110 M1/18                              :COUNTY
STAT .        Bengkulu                                 :STATE
CTRY .        Indonesia                                :COUNTRY
API  .                                                 :API NUMBER
UWI  .                                                 :UNIQUE WELL ID
DATE .        08-Jan-2017                              :LOG DATE {DD-MMM-YYYY}
SRVC .        Schlumberger                             :SERVICE COMPANY
LATI .DEG     3° 21' 20.38" S                          :LATITUDE
LONG .DEG     102° 22' 17.32" E                        :LONGITUDE
GDAT .                                                 :GeoDetic Datum
#-----------------------------------------------------------------------------
~PARAMETER INFORMATION
#MNEM.UNIT    VALUE                      DESCRIPTION
#---- -----   --------------------       ------------------------
RUN  .          S2R2                     :RUN NUMBER
PDAT .        MSL                        :Permanent Datum
EPD  .C3           0.000000              :Elevation of Permanent Datum above Mean Sea Level
LMF  .          DF                       :Logging Measured From (Name of Logging Elevation Reference)
APD  .M         1748.500000              :Elevation of Depth Reference (LMF) above Permanent Datum
#-----------------------------------------------------------------------------
~CURVE INFORMATION
#MNEM.UNIT   API CODE                                  DESCRIPTION
#---- -----  --------                                  -----------------------
DEPT .M                                                :DEPTH (BOREHOLE) {F10.4}
ANOR .M/S2                                             :Acceleration Computed Norm (vector length) {F13.4}
AX   .M/S2                                             :Acceleration X-Axis {F13.4}
AY   .M/S2                                             :Acceleration Y-Axis {F13.4}
AZ   .M/S2                                             :Acceleration Z-Axis {F13.4}
FINC .DEG                                              :Magnetic Field Inclination {F13.4}
FNOR .OER                                              :Magnetic Field Intensity Computed Norm {F13.4}
FX   .OER                                              :Magnetometer X-Axis {F13.4}
FY   .OER                                              :Magnetometer Y-Axis {F13.4}
FZ   .OER                                              :Magnetometer Z-Axis {F13.4}
GR_EDTC.GAPI                                           :Gamma Ray {F13.4}
HAZI .DEG                                              :Hole Azimuth Relative to True North {F13.4}
P1AZ .DEG                                              :Pad 1 Azimuth in Horizontal Plane (0 = True North) {F13.4}
PP   .                                                 :Pad Pressure {F13.4}
RB   .DEG                                              :Relative Bearing {F13.4}
TENS .LBF                                              :Cable Tension {F13.4}
TVD  .M                                                :True Vertical Depth {F13.4}
#-----------------------------------------------------------------------------
# 
#     DEPT        ANOR         AX           AY           AZ           FINC         FNOR         FX           FY           FZ         GR_EDTC        HAZI         P1AZ         PP           RB           TENS         TVD
#
~A  
# ...
 1760.0000       9.7821      -6.4732       0.8222       7.3694     -25.0350       0.4367      -0.0424       0.2949      -0.3190      98.0577     226.6922     236.8961      28.7965       7.6379    3382.5406    1478.8140
 1761.0000       9.7823      -6.5112       0.4123       7.3064     -25.0485       0.4366      -0.0605       0.2917      -0.3188     103.4426     226.7207     231.9483      29.1052       3.8977    3428.1295    1479.5695
 1762.0000       9.7823      -6.5336       0.0568       7.3035     -25.0649       0.4361      -0.0763       0.2879      -0.3190      67.3101     226.6920     227.6738      28.5539       0.7311    3403.5473    1480.3211
 1763.0000       9.7818      -6.5191       0.4649       7.5114     -25.0181       0.4360      -0.0582       0.2920      -0.3192      92.4231     226.5415     231.9415      28.9674       4.0293    3403.0146    1481.0873
 1764.0000       9.7831      -6.4970       0.5022       7.1852     -25.0472       0.4366      -0.0572       0.2925      -0.3189      94.1963     226.7050     233.1203      29.5990       4.7911    3404.6595    1481.8374
 1765.0000       9.7823      -6.5140       0.3279       7.1325     -25.0252       0.4366      -0.0647       0.2906      -0.3190      81.1308     226.7072     230.6758      28.2602       2.9596    3391.9128    1482.5837
 1766.0000       9.7803      -6.5165       0.2419       7.3641     -25.0229       0.4365      -0.0681       0.2904      -0.3189      84.9433     226.7410     229.5743      29.7788       2.1094    3476.1622    1483.3403
 1767.0000       9.7870      -6.5364      -0.3265       7.0419     -25.0704       0.4364      -0.0917       0.2832      -0.3189      81.5237     226.7408     223.8104      27.9647     357.8194    3407.4028    1484.0947
 1768.0000       9.7850      -6.5059      -0.7849       7.3635     -25.0760       0.4364      -0.1075       0.2774      -0.3191      85.0962     226.7288     217.7115      27.3908     353.2744    3118.3455    1484.8923
 1769.0000       9.7812      -6.4818      -0.7059       7.6102     -25.0713       0.4364      -0.1088       0.2747      -0.3209      94.6525     226.5702     217.0215      26.8943     352.8868    3490.1453    1485.6006
 1770.0000       9.7814      -6.5443      -0.3253       7.1830     -25.0681       0.4364      -0.0913       0.2836      -0.3188      82.7203     226.7650     223.3451      27.6499     357.4619    3355.5551    1486.3443
 1771.0000       9.7842      -6.5280      -0.7098       7.2870     -25.0634       0.4364      -0.1069       0.2776      -0.3189      77.2440     226.8114     220.0839      27.7408     355.0004    3363.0828    1487.0909
 1772.0000       9.7823      -6.5815      -0.3272       6.9816     -25.0605       0.4364      -0.0913       0.2832      -0.3192      71.2970     226.7588     222.5168      28.8450     356.8554    3379.7173    1487.8416
 1773.0000       9.7820      -6.5987      -0.1582       6.9676     -25.0699       0.4364      -0.0833       0.2853      -0.3193      75.6903     226.7180     225.4097      29.3834     359.0319    3366.3259    1488.5915
 1774.0000       9.7832      -6.5836      -0.6295       7.1560     -25.0788       0.4362      -0.1033       0.2781      -0.3199      78.6703     226.5926     220.5918      27.3060     355.5573    3408.3158    1489.3493
 1775.0000       9.7830      -6.3404      -1.7710       7.3956     -25.1084       0.4361      -0.1512       0.2539      -0.3205      68.3915     226.4591     206.3043      28.0272     344.8297    3460.4811    1490.0970
 1776.0000       9.7834      -6.5782      -0.6046       7.1348     -25.0685       0.4364      -0.1011       0.2793      -0.3198      75.4089     226.5987     220.0047      26.5174     355.1320    3421.8172    1490.8400
 1777.0000       9.7834      -6.5721      -0.7414       7.0945     -25.0847       0.4363      -0.1066       0.2768      -0.3201      81.0495     226.6871     217.8595      28.1729     353.4791    3403.2878    1491.5758
 1778.0000       9.7836      -6.5998      -0.6434       7.2057     -25.0816       0.4364      -0.1012       0.2785      -0.3200     104.2512     226.7395     219.4270      26.3710     354.6110    3403.7368    1492.3248
 1779.0000       9.7834      -6.6065      -0.6330       7.1666     -25.0785       0.4365      -0.1008       0.2793      -0.3199      73.4117     226.7850     219.4422      25.6832     354.5942    3387.4282    1493.0700
 1780.0000       9.7834      -6.5802      -0.9433       7.1038     -25.0795       0.4363      -0.1135       0.2738      -0.3203      72.6903     226.7365     216.0856      25.8792     352.1472    3400.9171    1493.8193
 1781.0000       9.7831      -6.4046      -1.7801       7.0978     -25.0897       0.4361      -0.1468       0.2568      -0.3202      71.5078     226.6870     206.6075      27.4818     345.0166    3420.2919    1494.5573
 1782.0000       9.7830      -6.4268      -1.8250       6.9422     -25.1014       0.4361      -0.1470       0.2569      -0.3202      64.9652     226.7076     205.0630      28.9701     343.8352    3379.5852    1495.2949
 1783.0000       9.7835      -6.5470      -1.4108       6.9269     -25.0966       0.4362      -0.1301       0.2658      -0.3206      70.7153     226.7020     210.3130      28.3551     347.8907    3391.3869    1496.0464
 1784.0000       9.7832      -6.6797      -0.5733       7.1957     -25.0978       0.4364      -0.0945       0.2804      -0.3205      75.8858     226.7717     218.2992      29.5535     353.8050    3415.9061    1496.7976
 1785.0000       9.7824      -6.6807      -0.2705       7.0950     -25.0730       0.4365      -0.0817       0.2849      -0.3205      66.3351     226.8162     223.8303      28.3545     357.8247    3446.0496    1497.5260
 1786.0000       9.7815      -6.7134      -0.3251       7.1548     -25.0678       0.4365      -0.0840       0.2841      -0.3206      68.5444     226.8682     223.1161      28.1722     357.2697    3424.2781    1498.2593
 1787.0000       9.7815      -6.7174      -0.1720       6.9193     -25.0659       0.4365      -0.0773       0.2862      -0.3206      87.2452     226.8685     225.4155      29.1311     358.9448    3391.4765    1498.9948
 1788.0000       9.7825      -6.7476      -0.0043       7.3636     -25.0755       0.4366      -0.0690       0.2883      -0.3206      68.2220     226.8755     226.4757      28.6198     257.6628    3413.5862    1499.7448
 1789.0000       9.7815      -6.7398      -0.1213       7.1311     -25.0613       0.4366      -0.0737       0.2866      -0.3209      58.9959     226.8412     226.2998      28.3385     303.8601    3418.5486    1500.4676
 1790.0000       9.7816      -6.7238      -0.5985       7.0800     -25.0664       0.4365      -0.0943       0.2800      -0.3214      67.6584     226.7278     220.2328      27.9115     355.2908    3369.3013    1501.2177
 1791.0000       9.7832      -6.6197      -1.3695       7.0444     -25.0906       0.4363      -0.1243       0.2677      -0.3215      67.0024     226.6870     210.9467      26.3702     348.4952    3453.2753    1501.9554
 1792.0000       9.7829      -6.7784      -1.3071       6.8140     -25.0979       0.4363      -0.1241       0.2671      -0.3215      65.8333     226.6746     210.8534      26.8664     348.4360    3445.6721    1502.6838
 1793.0000       9.7827      -6.6444      -1.3211       7.0066     -25.0981       0.4363      -0.1225       0.2687      -0.3212      63.8494     226.7218     210.9035      26.7970     348.4366    3431.9573    1503.4100
 1794.0000       9.7827      -6.6324      -1.3043       7.0187     -25.1011       0.4362      -0.1221       0.2682      -0.3216      76.1095     226.6743     211.6583      27.0505     349.0391    3417.7991    1504.1472
 1795.0000       9.7821      -6.4466      -1.2223       6.2302     -25.1138       0.4361      -0.1204       0.2689      -0.3214      94.4703     226.6473     211.7238      26.8947     349.1235    3321.4402    1504.8616
 1796.0000       9.7835      -6.7136      -1.0767       7.0226     -25.1136       0.4361      -0.1108       0.2733      -0.3216      77.2391     226.6726     214.3197      27.5428     351.0368    3431.4081    1505.6145
