~VERSION INFORMATION
VERS.           2.0   :CWLS Log ASCII Standard - VERSION 2.0
WRAP.           NO    :One Line per depth step
PROD.  Schlumberger   :LAS Producer
PROG.  DLIS to ASCII 19C2-270                          :LAS Program name and version
CREA.        2017/01/08 14:29                          :LAS Creation date {YYYY/MM/DD hh:mm}
DLIS_CREA.  2017-Jan-08 14:00                          :DLIS Creation date and time {YYYY-MMM-DD hh:mm}
SOURCE.     BDN-A1_12.25inch_S2R2_FMI-08-Jan-2017_Main.dlis  :DLIS File Name
FILE-ID.     ConCu_R05_L003Up_FBST                     :File Identification Number
#--------------------------------------------------
~WELL INFORMATION
#MNEM.UNIT      DATA             DESCRIPTION
#---- ------ --------------   -----------------------------
STRT .M      1316.0000       :START DEPTH     
STOP .M      2159.0000       :STOP DEPTH     
STEP .M       1.0000         :STEP     
NULL .          -999.25      :NULL VALUE
COMP .        PT. Pertamina Geothermal Energy          :COMPANY
WELL .        BDN-A/1                                  :WELL
FLD  .        Bukit Daun                               :FIELD
LOC  .        Bukit Daun                               :LOCATION
CNTY .        N-110 M1/18                              :COUNTY
STAT .        Bengkulu                                 :STATE
CTRY .        Indonesia                                :COUNTRY
API  .                                                 :API NUMBER
UWI  .                                                 :UNIQUE WELL ID
DATE .        08-Jan-2017                              :LOG DATE {DD-MMM-YYYY}
SRVC .        Schlumberger                             :SERVICE COMPANY
LATI .DEG     3° 21' 20.38" S                          :LATITUDE
LONG .DEG     102° 22' 17.32" E                        :LONGITUDE
GDAT .                                                 :GeoDetic Datum
#-----------------------------------------------------------------------------
~PARAMETER INFORMATION
#MNEM.UNIT    VALUE                      DESCRIPTION
#---- -----   --------------------       ------------------------
RUN  .          S2R2                     :RUN NUMBER
PDAT .        MSL                        :Permanent Datum
EPD  .C3           0.000000              :Elevation of Permanent Datum above Mean Sea Level
LMF  .          DF                       :Logging Measured From (Name of Logging Elevation Reference)
APD  .M         1748.500000              :Elevation of Depth Reference (LMF) above Permanent Datum
#-----------------------------------------------------------------------------
~CURVE INFORMATION
#MNEM.UNIT   API CODE                                  DESCRIPTION
#---- -----  --------                                  -----------------------
DEPT .M                                                :DEPTH (BOREHOLE) {F10.4}
ANOR .M/S2                                             :Acceleration Computed Norm (vector length) {F13.4}
AX   .M/S2                                             :Acceleration X-Axis {F13.4}
AY   .M/S2                                             :Acceleration Y-Axis {F13.4}
AZ   .M/S2                                             :Acceleration Z-Axis {F13.4}
FINC .DEG                                              :Magnetic Field Inclination {F13.4}
FNOR .OER                                              :Magnetic Field Intensity Computed Norm {F13.4}
FX   .OER                                              :Magnetometer X-Axis {F13.4}
FY   .OER                                              :Magnetometer Y-Axis {F13.4}
FZ   .OER                                              :Magnetometer Z-Axis {F13.4}
GR_EDTC.GAPI                                           :Gamma Ray {F13.4}
HAZI .DEG                                              :Hole Azimuth Relative to True North {F13.4}
P1AZ .DEG                                              :Pad 1 Azimuth in Horizontal Plane (0 = True North) {F13.4}
PP   .                                                 :Pad Pressure {F13.4}
RB   .DEG                                              :Relative Bearing {F13.4}
TENS .LBF                                              :Cable Tension {F13.4}
TVD  .M                                                :True Vertical Depth {F13.4}
#-----------------------------------------------------------------------------
# 
#     DEPT        ANOR         AX           AY           AZ           FINC         FNOR         FX           FY           FZ         GR_EDTC        HAZI         P1AZ         PP           RB           TENS         TVD
#
~A  
 1316.0000       9.6930      -6.2531      -1.2347       7.5194     -43.1951       0.2807      -0.0218      -0.0127      -0.2396      13.6666     173.4710     167.9438      17.1155     355.7183    2655.6667    1146.6110
 1317.0000       9.6930      -6.2531      -1.2347       7.5194     -43.1951       0.2807      -0.0218      -0.0127      -0.2396      10.5657     173.4710     167.9438      17.1155     355.7183    2655.6667    1146.6110
 1318.0000       9.6930      -6.2531      -1.2347       7.5194     -43.1951       0.2807      -0.0218      -0.0127      -0.2396      10.8966     173.4710     167.9438      17.1155     355.7183    2655.6667    1146.6110
 1319.0000       9.6930      -6.2531      -1.2347       7.5194     -43.1951       0.2807      -0.0218      -0.0127      -0.2396      11.6897     173.4710     167.9438      17.1155     355.7183    2655.6667    1146.6110
 1320.0000       9.6930      -6.2531      -1.2347       7.5194     -43.1951       0.2807      -0.0218      -0.0127      -0.2396      11.5457     173.4710     167.9438      17.1155     355.7183    2655.6667    1146.6110
 1321.0000       9.6930      -6.2531      -1.2347       7.5194     -43.1951       0.2807      -0.0218      -0.0127      -0.2396      11.0984     173.4710     167.9438      17.1155     355.7183    2655.6667    1146.6110
 1322.0000       9.6930      -6.2531      -1.2347       7.5194     -43.1951       0.2807      -0.0218      -0.0127      -0.2396      10.0902     173.4710     167.9438      13.1941     355.7183    2655.6667    1146.6110
 1323.0000       9.8060      -6.3082      -1.1684       7.5417     -81.7205       0.2904       0.1841      -0.0167      -0.2206      12.7373     137.3268     125.4022       3.6650     350.9158    2648.5551    1147.3260
 1324.0000       8.8480      -6.3060      -1.2019       7.4244     -69.5991       0.2676       0.0947       0.1438      -0.2564      17.4918     223.2620     206.9142       3.1476     346.3122    2653.4156    1148.0813
 1325.0000       8.3919      -6.3316      -1.1628       7.3089     -75.4335       0.2387       0.0651      -0.0045      -0.1928      25.3630     220.3203     263.7771       2.6920      40.1433    2633.7313    1148.8452
 1326.0000       9.3080      -6.3311      -1.2254       7.4135     -68.7758       0.2625       0.0583       0.1582      -0.2596      35.4838     228.4419     189.1323       4.2580     327.0489    2647.0561    1149.6111
 1327.0000       9.4756      -6.3243      -1.3255       7.3843     -83.4689       0.2468       0.2137       0.0415      -0.1709      36.8814     210.4088     207.8860      10.3674     123.7055    2653.4548    1150.3792
 1328.0000       8.4380      -6.3332      -1.3464       7.1531     -83.2669       0.2293       0.1389       0.0162      -0.1997      31.6302     105.3070      83.0452       9.4458     340.5272    2650.6611    1151.1442
 1329.0000       7.8261      -6.3417      -1.3604       7.5027     -25.8057       0.5581      -0.0506       0.3528      -0.0299      34.1513     265.1628     255.5236      10.6419     350.7773    2667.5849    1151.9168
 1330.0000       9.7376      -6.3427      -1.3601       7.1872     -24.1806       1.1968      -0.1003       1.1670      -0.6204      27.7543     255.8950     241.0059      10.0335     348.6815    2660.8236    1152.6794
 1331.0000       9.7738      -6.3456      -1.4528       7.4767     -25.9369       1.2439      -0.0954       1.0941      -0.5948      22.4110     254.2180     236.1001      10.7399     346.2408    2694.1334    1153.4587
 1332.0000       9.7208      -6.3514      -1.4536       7.2131     -33.4336       1.1214       0.0807       0.9860      -0.5465      26.1750     261.8982     242.3413       9.2358     345.0685    2664.9332    1154.2256
 1333.0000       9.7397      -6.3685      -1.3692       7.3635     -51.0692       0.8885       0.2944       0.5009      -0.5816      30.0808     265.0366     257.2674      10.3760     354.1572    2660.2824    1154.9905
 1334.0000       9.3295      -6.3622      -1.3601       7.2966     -64.9819       0.8087       0.2967       0.5477      -0.5645      27.3354     266.4860     233.0207       9.9181     332.7686    2672.0988    1155.7685
 1335.0000       9.2480      -6.3471      -1.4417       7.4412     -85.2981       0.8346       0.4062      -0.2358      -0.6214      27.8535      44.8036      77.0755       9.8913      26.6352    2667.5693    1156.5402
 1336.0000       9.6546      -6.2715      -1.6841       7.2936     -65.0284       1.2622       1.0838       0.5816      -0.5059      25.6529     339.2730     317.9332      10.2536     343.4737    2619.9720    1157.3134
 1337.0000       9.7418      -6.2252      -1.7953       7.3808     -55.9457       1.3320       1.0837       0.7822      -0.4068      34.6203     333.8962     306.5250      10.5358     338.7215    2654.8032    1158.0853
 1338.0000       9.5407      -6.2219      -1.7499       7.3750     -51.7360       1.1403       1.0839       0.2774      -0.1644      28.0079     349.7302     340.6803       9.8757     353.0516    2606.3329    1158.8580
 1339.0000       9.4180      -6.2315      -1.6937       7.3196     -38.5125       1.2177       0.1945       1.1910      -0.3545      49.1626     300.6548     257.3106       8.9838     323.5183    2706.1146    1159.6287
 1340.0000       9.7168      -6.3389      -0.8677       7.4590     -28.2008       1.3170       0.6185       1.1915      -0.1834      47.9300     294.9669     283.9517       5.8160     351.6224    2741.4586    1160.3970
 1341.0000       9.6876      -6.2016      -0.9838       7.4285      34.5980       1.2152      -1.1813       0.4827      -0.4539      39.8116     200.7212     189.2825       5.7124     351.2123    2632.7239    1161.1739
 1342.0000       9.6510      -6.3086      -0.4660       7.2162      -9.1949       0.4514      -0.1240       0.2748      -0.2653      42.9111     230.0885     233.1807       6.2323       2.4492    2597.7359    1161.9524
 1343.0000       9.7837      -6.3128      -0.4761       7.2650     -22.9164       0.4197      -0.1176       0.2737      -0.2969      42.3779     227.1231     221.3255       4.9798     355.5636    2603.0502    1162.7182
 1344.0000       9.7836      -6.2526      -0.1565       7.2131     -23.8625       0.4265      -0.1018       0.2794      -0.3062      53.5181     226.3780     224.0930       6.6238     358.2502    2586.6969    1163.4967
 1345.0000       9.7866      -6.7980      -0.4071       7.7374     -24.2277       0.4291      -0.1167       0.2727      -0.3112      48.2016     225.7135     220.3020       6.3917     355.8516    3120.3762    1164.2656
 1346.0000       9.7825      -6.2456      -1.2701       7.4887     -24.5078       0.4321      -0.1475       0.2546      -0.3166      46.6798     225.0284     210.6470      25.4958     348.9928    2613.4368    1165.0758
 1347.0000       9.7835      -6.3273      -1.1380       7.2276     -24.6517       0.4334      -0.1401       0.2565      -0.3195      51.5807     224.8274     212.1091      26.0221     350.3370    2501.5522    1165.8360
 1348.0000       9.7829      -6.3311      -0.8234       7.3878     -24.7636       0.4339      -0.1300       0.2607      -0.3222      61.0385     224.6354     214.4788      27.0645     352.2809    2646.6704    1166.6092
 1349.0000       9.7842      -6.3227      -0.9045       7.4134     -24.7959       0.4343      -0.1332       0.2604      -0.3212      54.4696     224.5588     214.1937      25.8378     352.0933    2688.9592    1167.3851
 1350.0000       9.7850      -6.4223      -0.4247       7.5998     -24.7595       0.4346      -0.1150       0.2706      -0.3207      51.2553     224.8621     217.8668      28.2806     354.6485    2727.9781    1168.1631
 1351.0000       9.7838      -6.2449       1.0616       7.7599     -24.6945       0.4333      -0.0485       0.2895      -0.3189      61.7732     224.9794     236.9145      27.2262       9.2125    2766.3889    1168.9420
 1352.0000       9.7844      -6.2345       0.3806       7.5824     -24.6228       0.4334      -0.0838       0.2839      -0.3141      29.4948     225.0235     229.2450      28.0461       3.2502    2781.5974    1169.7244
