~VERSION INFORMATION
VERS.           2.0   :CWLS Log ASCII Standard - VERSION 2.0
WRAP.           NO    :One Line per depth step
PROD.  Schlumberger   :LAS Producer
PROG.  DLIS to ASCII 19C2-270                          :LAS Program name and version
CREA.        2017/01/08 14:29                          :LAS Creation date {YYYY/MM/DD hh:mm}
DLIS_CREA.  2017-Jan-08 14:00                          :DLIS Creation date and time {YYYY-MMM-DD hh:mm}
SOURCE.     BDN-A1_12.25inch_S2R2_FMI-08-Jan-2017_Main.dlis  :DLIS File Name
FILE-ID.     ConCu_R05_L003Up_FBST                     :File Identification Number
#--------------------------------------------------
~WELL INFORMATION
#MNEM.UNIT      DATA             DESCRIPTION
#---- ------ --------------   -----------------------------
STRT .M      1316.0000       :START DEPTH     
STOP .M      2159.0000       :STOP DEPTH     
STEP .M       1.0000         :STEP     
NULL .          -999.25      :NULL VALUE
COMP .        PT. Pertamina Geothermal Energy          :COMPANY
WELL .        BDN-A/1                                  :WELL
FLD  .        Bukit Daun                               :FIELD
LOC  .        Bukit Daun                               :LOCATION
CNTY .        N-110 M1/18                              :COUNTY
STAT .        Bengkulu                                 :STATE
CTRY .        Indonesia                                :COUNTRY
API  .                                                 :API NUMBER
UWI  .                                                 :UNIQUE WELL ID
DATE .        08-Jan-2017                              :LOG DATE {DD-MMM-YYYY}
SRVC .        Schlumberger                             :SERVICE COMPANY
LATI .DEG     3° 21' 20.38" S                          :LATITUDE
LONG .DEG     102° 22' 17.32" E                        :LONGITUDE
GDAT .                                                 :GeoDetic Datum
#-----------------------------------------------------------------------------
~PARAMETER INFORMATION
#MNEM.UNIT    VALUE                      DESCRIPTION
#---- -----   --------------------       ------------------------
RUN  .          S2R2                     :RUN NUMBER
PDAT .        MSL                        :Permanent Datum
EPD  .C3           0.000000              :Elevation of Permanent Datum above Mean Sea Level
LMF  .          DF                       :Logging Measured From (Name of Logging Elevation Reference)
APD  .M         1748.500000              :Elevation of Depth Reference (LMF) above Permanent Datum
#-----------------------------------------------------------------------------
~CURVE INFORMATION
#MNEM.UNIT   API CODE                                  DESCRIPTION
#---- -----  --------                                  -----------------------
DEPT .M                                                :DEPTH (BOREHOLE) {F10.4}
ANOR .M/S2                                             :Acceleration Computed Norm (vector length) {F13.4}
AX   .M/S2                                             :Acceleration X-Axis {F13.4}
AY   .M/S2                                             :Acceleration Y-Axis {F13.4}
AZ   .M/S2                                             :Acceleration Z-Axis {F13.4}
FINC .DEG                                              :Magnetic Field Inclination {F13.4}
FNOR .OER                                              :Magnetic Field Intensity Computed Norm {F13.4}
FX   .OER                                              :Magnetometer X-Axis {F13.4}
FY   .OER                                              :Magnetometer Y-Axis {F13.4}
FZ   .OER                                              :Magnetometer Z-Axis {F13.4}
GR_EDTC.GAPI                                           :Gamma Ray {F13.4}
HAZI .DEG                                              :Hole Azimuth Relative to True North {F13.4}
P1AZ .DEG                                              :Pad 1 Azimuth in Horizontal Plane (0 = True North) {F13.4}
PP   .                                                 :Pad Pressure {F13.4}
RB   .DEG                                              :Relative Bearing {F13.4}
TENS .LBF                                              :Cable Tension {F13.4}
TVD  .M                                                :True Vertical Depth {F13.4}
#-----------------------------------------------------------------------------
# 
#     DEPT        ANOR         AX           AY           AZ           FINC         FNOR         FX           FY           FZ         GR_EDTC        HAZI         P1AZ         PP           RB           TENS         TVD
#
~A  
# ...
 1908.0000       9.7833      -6.7881      -1.3649       6.9524     -24.8090       0.4408      -0.1259       0.2614      -0.3329      59.3758     224.4544     208.3636      20.5762     348.4817    3486.6552    1586.4212
 1909.0000       9.7844      -6.6530      -1.7828       6.9565     -24.8397       0.4364      -0.1364       0.2517      -0.3277      71.4926     224.6538     205.1621      23.4271     345.9475    3481.1810    1587.1548
 1910.0000       9.7828      -6.8632      -0.7743       6.7290     -24.8121       0.4362      -0.1025       0.2676      -0.3305      83.4789     224.4432     214.1884      22.5428     352.6974    3431.7985    1587.8593
 1911.0000       9.7829      -6.8665      -0.6054       6.7657     -24.9596       0.4363      -0.0952       0.2687      -0.3301      90.6508     224.3984     216.7355      20.2823     354.5499    3449.8174    1588.5947
 1912.0000       9.7818      -6.8974      -0.0645       6.9599     -25.0823       0.4363      -0.0736       0.2746      -0.3310      81.1175     224.3114     223.4629      20.6779     359.3973    3464.5550    1589.3277
 1913.0000       9.7820      -6.8625      -0.2593       6.8878     -25.1202       0.4365      -0.0816       0.2728      -0.3310      94.1757     224.2662     221.2644      19.7286     357.8623    3464.9325    1590.0528
 1914.0000       9.7811      -6.8504       0.2944       7.1274     -25.1185       0.4368      -0.0617       0.2782      -0.3310     111.0174     224.2698     228.3373      21.5779       2.9045    3438.1489    1590.7830
 1915.0000       9.7807      -6.7960       0.7705       6.9793     -25.1095       0.4369      -0.0416       0.2820      -0.3311     103.7550     224.2383     233.3118      21.3776       6.5096    3476.7003    1591.5029
 1916.0000       9.7819      -6.8128       0.5070       6.8579     -25.1132       0.4368      -0.0524       0.2801      -0.3310     100.1033     224.2431     230.9359      21.7440       4.7946    3463.7611    1592.2209
 1917.0000       9.7828      -6.8476       0.0889       7.1296     -25.1057       0.4367      -0.0692       0.2770      -0.3303     106.1185     224.3348     225.7257      22.2873       0.9944    3464.2524    1592.9571
 1918.0000       9.7818      -6.8668       0.1229       7.0123     -25.1181       0.4368      -0.0677       0.2779      -0.3301      98.8721     224.4335     225.3513      19.5525       0.6568    3449.3347    1593.6863
 1919.0000       9.7828      -6.8319      -0.4263       6.8241     -25.1304       0.4366      -0.0889       0.2718      -0.3299      89.8224     224.4934     220.6919      21.4206     357.2752    3404.1291    1594.4052
 1920.0000       9.7836      -6.7785      -0.8064       7.0459     -25.1596       0.4365      -0.1044       0.2666      -0.3298     104.2841     224.5776     214.1716      20.8897     352.5036    3509.2081    1595.1405
 1921.0000       9.7824      -6.8375      -0.6208       6.9149     -25.1594       0.4365      -0.0968       0.2693      -0.3297      86.7399     224.6034     217.9790      22.0325     355.2409    3548.0491    1595.8644
 1922.0000       9.7831      -6.8029       0.0240       6.6740     -25.1645       0.4366      -0.0719       0.2771      -0.3296      97.7770     224.5746     224.1824      22.8301     162.2383    3506.8289    1596.5978
 1923.0000       9.7816      -6.7415       0.6539       7.1292     -25.1523       0.4367      -0.0464       0.2829      -0.3298      96.2633     224.4939     231.7210      22.1461       5.2083    3496.3944    1597.3345
 1924.0000       9.7807      -6.7853       0.4387       7.0178     -25.1572       0.4366      -0.0583       0.2788      -0.3310      99.7571     224.2019     229.6836      14.1083       3.9526    3477.9213    1598.0528
 1925.0000       9.7827      -6.7802       0.1519       7.0447     -25.1765       0.4367      -0.0685       0.2763      -0.3308      98.3349     224.1179     225.5768      13.3199       1.0503    3506.3794    1598.7731
 1926.0000       9.7827      -6.4771       1.0416       6.9689     -25.2050       0.4371      -0.0304       0.2836      -0.3308     100.2278     224.1902     236.0669      13.0676       8.6036    3515.2362    1599.5160
 1927.0000       9.7815      -6.6726       1.3075       6.9830     -25.1583       0.4380      -0.0195       0.2864      -0.3313     102.8406     224.4053     239.5661      14.0196      11.0186    3451.3718    1600.2474
 1928.0000       9.7798      -6.7921       0.5893       6.8556     -25.0553       0.4367      -0.0498       0.2822      -0.3287      96.2397     224.4555     232.4972      14.1351       5.7875    3432.1331    1600.9746
 1929.0000       9.7847      -6.7559      -1.1142       7.0589     -25.1912       0.4355      -0.1172       0.2563      -0.3321     104.9109     224.1376     211.8292      22.0685     351.1117    3537.5043    1601.7263
 1930.0000       9.7807      -6.6586      -1.5784       6.8910     -25.2541       0.4355      -0.1337       0.2510      -0.3299      98.3847     224.3935     205.2154      22.3591     346.0522    3522.1120    1602.4314
 1931.0000       9.7852      -6.5062      -2.0416       6.9629     -25.3018       0.4356      -0.1247       0.2554      -0.3299      97.3533     224.2715     208.6580      24.6360     348.7100    3891.0324    1603.1786
 1932.0000       9.7805      -6.8002      -0.6417       6.8370     -25.2699       0.4358      -0.0979       0.2677      -0.3297      93.4392     224.3499     216.8190      22.9700     354.5960    3484.7012    1603.8806
 1933.0000       9.7830      -6.7826       0.1537       7.0336     -25.2768       0.4360      -0.0663       0.2781      -0.3291      86.4415     224.6454     225.6904      22.3349       0.7507    3445.2167    1604.6228
 1934.0000       9.7826      -6.7376       0.7152       6.9740     -25.2556       0.4361      -0.0439       0.2824      -0.3293      88.0012     224.6226     232.8072      21.4294       5.9094    3461.1489    1605.3626
 1935.0000       9.7815      -6.7810       0.3074       7.1905     -25.2599       0.4362      -0.0599       0.2803      -0.3288      94.1991     224.7051     227.8967      23.0320       2.2983    3472.9180    1606.0906
 1936.0000       9.7815      -6.7981       0.3388       7.0876     -25.2863       0.4362      -0.0586       0.2803      -0.3288      94.2334     224.7541     229.0497      23.7049       3.0941    3468.0550    1606.8222
 1937.0000       9.7830      -6.7918       0.5067       6.9082     -25.3056       0.4362      -0.0514       0.2817      -0.3290      74.5060     224.7376     230.7665      22.6500       4.3514    3443.8018    1607.5428
 1938.0000       9.7816      -6.7461       0.7154       6.9833     -25.3109       0.4363      -0.0441       0.2833      -0.3289      94.1959     224.7341     232.9831      23.7632       5.9653    3479.2501    1608.2898
 1939.0000       9.7816      -6.7847       0.3671       7.0063     -25.3205       0.4364      -0.0580       0.2800      -0.3300      86.2011     224.6359     229.3409      23.1553       3.3894    3456.1598    1609.0088
 1940.0000       9.7840      -6.7654      -0.6848       7.1145     -25.3649       0.4364      -0.0991       0.2680      -0.3296      87.8872     224.6739     216.7958      24.9619     354.3177    3537.3834    1609.7395
 1941.0000       9.7823      -6.7968      -0.0778       6.9840     -25.3857       0.4366      -0.0737       0.2769      -0.3295      76.3983     224.8158     223.1513      24.7581     358.8038    3500.5651    1610.4688
 1942.0000       9.7816      -6.7916       0.2457       6.8905     -25.3717       0.4368      -0.0622       0.2801      -0.3291      72.9332     224.9086     227.7370      23.0315       2.0344    3479.4452    1611.1983
 1943.0000       9.7840      -6.8048      -0.4242       7.0904     -25.3928       0.4368      -0.0891       0.2730      -0.3291      58.9851     224.9760     220.2183      23.6470     356.5743    3522.1889    1611.9357
 1944.0000       9.7824      -6.8007      -0.3209       7.1039     -25.4199       0.4370      -0.0836       0.2750      -0.3291      44.9757     225.0627     219.5846      24.2320     356.0553    3501.1711    1612.6663
