~VERSION INFORMATION
VERS.           2.0   :CWLS Log ASCII Standard - VERSION 2.0
WRAP.           NO    :One Line per depth step
PROD.  Schlumberger   :LAS Producer
PROG.  DLIS to ASCII 19C2-270                          :LAS Program name and version
CREA.        2017/01/08 14:29                          :LAS Creation date {YYYY/MM/DD hh:mm}
DLIS_CREA.  2017-Jan-08 14:00                          :DLIS Creation date and time {YYYY-MMM-DD hh:mm}
SOURCE.     BDN-A1_12.25inch_S2R2_FMI-08-Jan-2017_Main.dlis  :DLIS File Name
FILE-ID.     ConCu_R05_L003Up_FBST                     :File Identification Number
#--------------------------------------------------
~WELL INFORMATION
#MNEM.UNIT      DATA             DESCRIPTION
#---- ------ --------------   -----------------------------
STRT .M      1316.0000       :START DEPTH     
STOP .M      2159.0000       :STOP DEPTH     
STEP .M       1.0000         :STEP     
NULL .          -999.25      :NULL VALUE
COMP .        PT. Pertamina Geothermal Energy          :COMPANY
WELL .        BDN-A/1                                  :WELL
FLD  .        Bukit Daun                               :FIELD
LOC  .        Bukit Daun                               :LOCATION
CNTY .        N-110 M1/18                              :COUNTY
STAT .        Bengkulu                                 :STATE
CTRY .        Indonesia                                :COUNTRY
API  .                                                 :API NUMBER
UWI  .                                                 :UNIQUE WELL ID
DATE .        08-Jan-2017                              :LOG DATE {DD-MMM-YYYY}
SRVC .        Schlumberger                             :SERVICE COMPANY
LATI .DEG     3° 21' 20.38" S                          :LATITUDE
LONG .DEG     102° 22' 17.32" E                        :LONGITUDE
GDAT .                                                 :GeoDetic Datum
#-----------------------------------------------------------------------------
~PARAMETER INFORMATION
#MNEM.UNIT    VALUE                      DESCRIPTION
#---- -----   --------------------       ------------------------
RUN  .          S2R2                     :RUN NUMBER
PDAT .        MSL                        :Permanent Datum
EPD  .C3           0.000000              :Elevation of Permanent Datum above Mean Sea Level
LMF  .          DF                       :Logging Measured From (Name of Logging Elevation Reference)
APD  .M         1748.500000              :Elevation of Depth Reference (LMF) above Permanent Datum
#-----------------------------------------------------------------------------
~CURVE INFORMATION
#MNEM.UNIT   API CODE                                  DESCRIPTION
#---- -----  --------                                  -----------------------
DEPT .M                                                :DEPTH (BOREHOLE) {F10.4}
ANOR .M/S2                                             :Acceleration Computed Norm (vector length) {F13.4}
AX   .M/S2                                             :Acceleration X-Axis {F13.4}
AY   .M/S2                                             :Acceleration Y-Axis {F13.4}
AZ   .M/S2                                             :Acceleration Z-Axis {F13.4}
FINC .DEG                                              :Magnetic Field Inclination {F13.4}
FNOR .OER                                              :Magnetic Field Intensity Computed Norm {F13.4}
FX   .OER                                              :Magnetometer X-Axis {F13.4}
FY   .OER                                              :Magnetometer Y-Axis {F13.4}
FZ   .OER                                              :Magnetometer Z-Axis {F13.4}
GR_EDTC.GAPI                                           :Gamma Ray {F13.4}
HAZI .DEG                                              :Hole Azimuth Relative to True North {F13.4}
P1AZ .DEG                                              :Pad 1 Azimuth in Horizontal Plane (0 = True North) {F13.4}
PP   .                                                 :Pad Pressure {F13.4}
RB   .DEG                                              :Relative Bearing {F13.4}
TENS .LBF                                              :Cable Tension {F13.4}
TVD  .M                                                :True Vertical Depth {F13.4}
#-----------------------------------------------------------------------------
# 
#     DEPT        ANOR         AX           AY           AZ           FINC         FNOR         FX           FY           FZ         GR_EDTC        HAZI         P1AZ         PP           RB           TENS         TVD
#
~A  
# ...
 1427.0000       9.7832      -6.3036      -1.2899       7.4161     -24.9387       0.4375      -0.1464       0.2532      -0.3255      54.6371     224.4769     209.0440      28.7057     348.2555    2849.5633    1226.9876
 1428.0000       9.7834      -6.2525      -1.5522       7.3034     -24.9405       0.4374      -0.1565       0.2467      -0.3254      63.4538     224.5101     205.7400      29.8387     345.6419    2799.5466    1227.7362
 1429.0000       9.7834      -6.2661      -1.4140       7.3223     -24.9286       0.4374      -0.1508       0.2508      -0.3252      50.9168     224.5634     207.6583      28.9139     347.1081    2840.0516    1228.4988
 1430.0000       9.7841      -6.2981      -1.3210       7.4101     -24.9198       0.4374      -0.1470       0.2529      -0.3252      28.4626     224.5657     208.7994      29.5778     347.9961    2825.1950    1229.2551
 1431.0000       9.7841      -6.2950      -1.3677       7.1824     -24.9143       0.4373      -0.1493       0.2513      -0.3253      29.6265     224.5422     208.0671      29.2746     347.4418    2807.4696    1230.0165
 1432.0000       9.7834      -6.2223      -1.6634       7.3192     -24.8994       0.4371      -0.1613       0.2433      -0.3252      33.8281     224.4522     205.2049      29.3480     345.2676    2834.5783    1230.7711
 1433.0000       9.7836      -6.0396      -2.2074       7.3328     -24.9165       0.4368      -0.1813       0.2285      -0.3251      59.9523     224.4226     198.9159      27.5201     340.2508    2835.7309    1231.5282
 1434.0000       9.7836      -6.0738      -2.1071       7.3074     -24.9261       0.4369      -0.1755       0.2330      -0.3253      73.9989     224.5024     200.0303      26.7517     341.1236    2833.0214    1232.2816
 1435.0000       9.7835      -6.1800      -1.9410       7.2048     -24.9594       0.4369      -0.1678       0.2388      -0.3246      75.1396     224.6997     202.0338      24.6925     342.6122    2830.9449    1233.0390
 1436.0000       9.7830      -6.2515      -1.7521       7.2013     -24.9608       0.4371      -0.1605       0.2443      -0.3251      76.5683     224.8457     204.2962      25.9208     344.3235    2829.7572    1233.8032
 1437.0000       9.7837      -6.2871      -1.6371       7.4097     -24.9768       0.4370      -0.1551       0.2487      -0.3242      73.5400     224.9640     205.7579      24.7515     345.3973    2851.2407    1234.5629
 1438.0000       9.7837      -6.2679      -1.7443       7.2741     -24.9612       0.4370      -0.1590       0.2462      -0.3240      94.9406     225.0151     204.5262      25.6474     344.3964    2865.3991    1235.3135
 1439.0000       9.7830      -6.2748      -1.6973       7.4869     -24.9537       0.4368      -0.1575       0.2469      -0.3238      78.7175     224.9925     204.6850      25.6502     344.5411    2836.8092    1236.0764
 1440.0000       9.7845      -6.4132      -1.0912       7.3858     -24.9654       0.4369      -0.1330       0.2609      -0.3247      91.0650     224.9803     211.4887      29.0842     349.8375    2868.5839    1236.8318
 1441.0000       9.7832      -6.5093       0.2394       7.2561     -24.9328       0.4373      -0.0772       0.2826      -0.3249     103.5450     224.9991     226.8514      28.5370       1.3820    2852.3139    1237.5847
 1442.0000       9.7822      -6.4723       0.7859       7.2746     -24.9129       0.4374      -0.0524       0.2884      -0.3248      98.9043     225.0057     234.0009      29.3017       6.7300    2846.1145    1238.3427
 1443.0000       9.7828      -6.4814       0.7888       7.2471     -24.9043       0.4374      -0.0521       0.2885      -0.3248      89.8870     225.0608     234.3573      28.5783       6.9515    2880.2938    1239.1027
 1444.0000       9.7834      -6.4948       0.6554       7.2068     -24.9173       0.4373      -0.0565       0.2880      -0.3237     104.0280     225.1532     233.3806      28.8593       6.1428    2879.7211    1239.8526
 1445.0000       9.7835      -6.5188       0.4299       7.1936     -24.9442       0.4370      -0.0658       0.2858      -0.3238      88.4179     225.2256     230.4480      28.0860       3.8903    2862.1891    1240.6140
 1446.0000       9.7840      -6.5370       0.1601       7.3748     -24.8954       0.4371      -0.0784       0.2829      -0.3239      61.1274     225.2247     227.3757      29.9197       1.6007    2880.5380    1241.3781
 1447.0000       9.7830      -6.5123      -0.2416       7.1195     -24.8940       0.4371      -0.0942       0.2778      -0.3243      59.0434     225.1938     223.0353      29.1993     358.3928    2846.8371    1242.1206
 1448.0000       9.7832      -6.4848      -0.4963       7.2161     -24.8977       0.4369      -0.1058       0.2736      -0.3238      54.5112     225.1827     219.8414      29.9369     356.0167    2858.7189    1242.8824
 1449.0000       9.7834      -6.4823      -0.6852       7.3105     -24.8868       0.4368      -0.1153       0.2699      -0.3235      51.8883     225.1757     217.5287      28.7331     354.2860    2892.4497    1243.6377
 1450.0000       9.7836      -6.3844      -1.3076       7.4283     -24.8845       0.4367      -0.1412       0.2566      -0.3238      92.3864     225.1463     210.0176      28.7086     348.6026    2914.6867    1244.3934
 1451.0000       9.7839      -6.4267      -1.1190       7.3015     -24.8473       0.4367      -0.1331       0.2618      -0.3232      88.8877     225.1842     211.7382      27.0961     349.8925    2934.7517    1245.1489
 1452.0000       9.7832      -6.3902      -1.2699       7.2434     -24.7962       0.4366      -0.1403       0.2580      -0.3230      79.0929     225.2354     210.2394      27.1563     348.7023    2906.0918    1245.9039
 1453.0000       9.7841      -6.4233      -1.1974       7.2395     -24.7586       0.4366      -0.1366       0.2603      -0.3234      95.2668     225.2827     211.4773      27.4174     349.6181    2930.3527    1246.6584
 1454.0000       9.7832      -6.4004      -1.2387       7.2500     -24.8124       0.4368      -0.1375       0.2602      -0.3226      97.3803     225.3620     210.5414      27.9470     348.8404    2882.7087    1247.4164
 1455.0000       9.7832      -6.4118      -1.1591       7.3359     -24.8228       0.4370      -0.1343       0.2618      -0.3229     129.7608     225.3833     211.3800      26.9544     349.4655    2891.9129    1248.1755
 1456.0000       9.7836      -6.4873      -0.5522       7.2955     -24.8557       0.4371      -0.1086       0.2736      -0.3230      38.8657     225.3828     218.2526      28.6862     354.6723    2920.5905    1248.9315
 1457.0000       9.7829      -6.5456      -0.3265       7.3539     -24.8355       0.4371      -0.1001       0.2764      -0.3239     139.3086     225.2775     221.3755      27.6663     357.0941    2898.1486    1249.6839
 1458.0000       9.7836      -6.5048      -0.5491       7.2949     -24.8219       0.4369      -0.1088       0.2731      -0.3237      38.4878     225.2735     219.2880      29.8191     355.5395    2888.3028    1250.4380
 1459.0000       9.7828      -6.4920      -0.4757       7.2832     -24.5978       0.4356      -0.1056       0.2734      -0.3222       9.6467     225.4270     220.3260      28.0137     356.1968    2937.2315    1251.1979
 1460.0000       9.7829      -6.5130      -0.1542       7.2655     -24.1049       0.4388      -0.0995       0.2884      -0.3197       7.6669     225.8104     223.1070      28.4479     357.9846    2931.5052    1251.9453
 1461.0000       9.7835      -6.5086      -0.4868       7.2971     -24.8575       0.4394      -0.1057       0.2760      -0.3246      13.2727     225.5192     220.2381      27.8655     356.0599    2945.8842    1252.7026
 1462.0000       9.7835      -6.4336      -1.0621       7.1217     -24.9130       0.4383      -0.1304       0.2639      -0.3249       9.4247     225.3049     212.9531      28.5461     350.7372    2892.6266    1253.4521
 1463.0000       9.7839      -6.4638      -0.8774       7.2698     -24.8986       0.4381      -0.1232       0.2676      -0.3240       9.7911     225.3286     214.0572      28.3118     351.5548    2935.7400    1254.2140
