~VERSION INFORMATION
VERS.           2.0   :CWLS Log ASCII Standard - VERSION 2.0
WRAP.           NO    :One Line per depth step
PROD.  Schlumberger   :LAS Producer
PROG.  DLIS to ASCII 19C2-270                          :LAS Program name and version
CREA.        2017/01/08 14:29                          :LAS Creation date {YYYY/MM/DD hh:mm}
DLIS_CREA.  2017-Jan-08 14:00                          :DLIS Creation date and time {YYYY-MMM-DD hh:mm}
SOURCE.     BDN-A1_12.25inch_S2R2_FMI-08-Jan-2017_Main.dlis  :DLIS File Name
FILE-ID.     ConCu_R05_L003Up_FBST                     :File Identification Number
#--------------------------------------------------
~WELL INFORMATION
#MNEM.UNIT      DATA             DESCRIPTION
#---- ------ --------------   -----------------------------
STRT .M      1316.0000       :START DEPTH     
STOP .M      2159.0000       :STOP DEPTH     
STEP .M       1.0000         :STEP     
NULL .          -999.25      :NULL VALUE
COMP .        PT. Pertamina Geothermal Energy          :COMPANY
WELL .        BDN-A/1                                  :WELL
FLD  .        Bukit Daun                               :FIELD
LOC  .        Bukit Daun                               :LOCATION
CNTY .        N-110 M1/18                              :COUNTY
STAT .        Bengkulu                                 :STATE
CTRY .        Indonesia                                :COUNTRY
API  .                                                 :API NUMBER
UWI  .                                                 :UNIQUE WELL ID
DATE .        08-Jan-2017                              :LOG DATE {DD-MMM-YYYY}
SRVC .        Schlumberger                             :SERVICE COMPANY
LATI .DEG     3° 21' 20.38" S                          :LATITUDE
LONG .DEG     102° 22' 17.32" E                        :LONGITUDE
GDAT .                                                 :GeoDetic Datum
#-----------------------------------------------------------------------------
~PARAMETER INFORMATION
#MNEM.UNIT    VALUE                      DESCRIPTION
#---- -----   --------------------       ------------------------
RUN  .          S2R2                     :RUN NUMBER
PDAT .        MSL                        :Permanent Datum
EPD  .C3           0.000000              :Elevation of Permanent Datum above Mean Sea Level
LMF  .          DF                       :Logging Measured From (Name of Logging Elevation Reference)
APD  .M         1748.500000              :Elevation of Depth Reference (LMF) above Permanent Datum
#-----------------------------------------------------------------------------
~CURVE INFORMATION
#MNEM.UNIT   API CODE                                  DESCRIPTION
#---- -----  --------                                  -----------------------
DEPT .M                                                :DEPTH (BOREHOLE) {F10.4}
ANOR .M/S2                                             :Acceleration Computed Norm (vector length) {F13.4}
AX   .M/S2                                             :Acceleration X-Axis {F13.4}
AY   .M/S2                                             :Acceleration Y-Axis {F13.4}
AZ   .M/S2                                             :Acceleration Z-Axis {F13.4}
FINC .DEG                                              :Magnetic Field Inclination {F13.4}
FNOR .OER                                              :Magnetic Field Intensity Computed Norm {F13.4}
FX   .OER                                              :Magnetometer X-Axis {F13.4}
FY   .OER                                              :Magnetometer Y-Axis {F13.4}
FZ   .OER                                              :Magnetometer Z-Axis {F13.4}
GR_EDTC.GAPI                                           :Gamma Ray {F13.4}
HAZI .DEG                                              :Hole Azimuth Relative to True North {F13.4}
P1AZ .DEG                                              :Pad 1 Azimuth in Horizontal Plane (0 = True North) {F13.4}
PP   .                                                 :Pad Pressure {F13.4}
RB   .DEG                                              :Relative Bearing {F13.4}
TENS .LBF                                              :Cable Tension {F13.4}
TVD  .M                                                :True Vertical Depth {F13.4}
#-----------------------------------------------------------------------------
# 
#     DEPT        ANOR         AX           AY           AZ           FINC         FNOR         FX           FY           FZ         GR_EDTC        HAZI         P1AZ         PP           RB           TENS         TVD
#
~A  
# ...
 1797.0000       9.7834      -6.6727      -1.2177       7.1262     -25.1198       0.4360      -0.1172       0.2699      -0.3216      74.3223     226.6712     212.2630      27.3419     349.5222    3431.1569    1506.3421
 1798.0000       9.7843      -6.6415      -1.4290       6.9472     -25.1047       0.4361      -0.1259       0.2661      -0.3220      72.9105     226.6609     210.1547      26.8575     347.9732    3434.5226    1507.0666
 1799.0000       9.7832      -6.7077      -1.1889       7.2456     -25.1071       0.4362      -0.1152       0.2709      -0.3220      72.9731     226.6790     212.2697      28.1166     349.5447    3428.8145    1507.7989
 1800.0000       9.7828      -6.7408      -1.0833       7.1639     -25.1231       0.4362      -0.1103       0.2728      -0.3219      67.5393     226.7262     214.0307      26.8371     350.8178    3456.3965    1508.5322
 1801.0000       9.7838      -6.7526      -0.9805       7.1451     -25.1314       0.4363      -0.1057       0.2745      -0.3222      75.5609     226.6880     214.9589      28.0894     351.5343    3430.9195    1509.2522
 1802.0000       9.7829      -6.7523      -0.9668       7.0308     -25.1281       0.4362      -0.1049       0.2745      -0.3223      69.6922     226.6618     215.3038      27.5231     351.8150    3459.1086    1509.9883
 1803.0000       9.7827      -6.8410       0.0753       6.9233     -25.1065       0.4365      -0.0610       0.2881      -0.3221      84.9458     226.7439     226.9007      26.8398     104.9939    3428.6705    1510.7082
 1804.0000       9.7832      -6.8348       0.3509       6.8009     -25.0968       0.4366      -0.0492       0.2907      -0.3220      91.9747     226.8097     230.8059      25.9446       2.8577    3428.6847    1511.4381
 1805.0000       9.7821      -6.8291       0.5519       6.9071     -25.0869       0.4366      -0.0414       0.2923      -0.3218      90.1261     226.8496     232.9188      24.6888       4.3432    3418.3011    1512.1686
 1806.0000       9.7823      -6.8330       0.5325       7.0474     -25.0808       0.4366      -0.0417       0.2921      -0.3218      98.3476     226.8451     233.2232      25.7522       4.5625    3422.9982    1512.8863
 1807.0000       9.7825      -6.8523       0.4982       7.1116     -25.0806       0.4365      -0.0431       0.2914      -0.3221      87.1805     226.8099     232.5727      25.0509       4.1171    3433.1683    1513.6182
 1808.0000       9.7827      -6.8341       0.6228       6.9355     -25.0839       0.4365      -0.0374       0.2921      -0.3224      84.5399     226.7788     233.7990      25.4866       5.0153    3442.4255    1514.3374
 1809.0000       9.7818      -6.8541       0.3503       6.9799     -25.0917       0.4365      -0.0484       0.2902      -0.3221      87.4323     226.7602     231.0633      26.4930       3.0696    3469.2238    1515.0605
 1810.0000       9.7824      -6.8614      -0.1893       7.0057     -25.0976       0.4365      -0.0716       0.2854      -0.3223      80.1574     226.7620     225.1929      25.5904     358.8820    3486.8791    1515.7801
 1811.0000       9.7819      -6.8597      -0.3453       7.0109     -25.0801       0.4364      -0.0777       0.2837      -0.3223      93.1112     226.7768     222.9147      26.8682     357.2485    3417.5436    1516.5167
 1812.0000       9.7829      -6.8619      -0.2455       6.8197     -25.0772       0.4364      -0.0726       0.2851      -0.3223      91.7487     226.8222     224.4770      25.8861     358.3315    3455.7238    1517.2198
 1813.0000       9.7810      -6.8472       0.7488       6.8458     -25.0814       0.4366      -0.0299       0.2930      -0.3219      99.8577     226.8698     235.1948      25.8809       5.9292    3443.3506    1517.9514
 1814.0000       9.7809      -6.8545       0.8784       6.9845     -25.0632       0.4366      -0.0253       0.2935      -0.3225      84.2100     226.7910     236.8830      26.0283       7.1968    3476.5484    1518.6819
 1815.0000       9.7822      -6.8896       0.2892       6.8067     -25.0742       0.4366      -0.0515       0.2895      -0.3229     102.2999     226.6811     229.7304      27.5523       2.1638    3451.5070    1519.3976
 1816.0000       9.7814      -6.9287       0.2870       6.7431     -25.0746       0.4366      -0.0504       0.2892      -0.3230      96.4813     226.6202     229.8834      27.7546       2.3114    3464.1040    1520.1292
 1817.0000       9.7816      -6.8767       0.3742       6.6759     -25.0814       0.4366      -0.0462       0.2892      -0.3239      75.4072     226.4973     230.5365      27.6856       2.8577    3422.1079    1520.8537
 1818.0000       9.7828      -6.9192       0.2149       6.9684     -25.0866       0.4366      -0.0531       0.2872      -0.3245      81.0497     226.3795     228.5580      29.2123       1.5391    3459.2836    1521.5759
 1819.0000       9.7828      -6.9161       0.3509       6.8560     -25.0816       0.4365      -0.0471       0.2886      -0.3240      75.2256     226.4225     230.8832      28.3466       3.1520    3444.2819    1522.2825
 1820.0000       9.7816      -6.9338       0.1720       6.7137     -25.0953       0.4364      -0.0546       0.2868      -0.3242      73.1002     226.4829     228.3907      28.8944       1.3454    3428.5550    1523.0146
 1821.0000       9.7812      -6.9394       0.2205       6.8087     -25.0771       0.4365      -0.0518       0.2879      -0.3239      81.0782     226.4871     229.3470      28.9873       2.0156    3417.1496    1523.7266
 1822.0000       9.7811      -6.9211       0.6433       6.7191     -25.0503       0.4367      -0.0335       0.2909      -0.3239      74.3308     226.4815     233.5145      29.0472       4.9626    3433.0022    1524.4492
 1823.0000       9.7813      -6.8641       0.9188       6.8149     -25.0265       0.4368      -0.0218       0.2923      -0.3236      75.3764     226.5286     237.4387      28.9105       7.7187    3408.0855    1525.1820
 1824.0000       9.7810      -6.8973       0.9798       6.8031     -25.0118       0.4368      -0.0193       0.2923      -0.3239      78.9765     226.5514     237.5299      27.1989       7.7656    3412.8459    1525.9049
 1825.0000       9.7821      -6.9668       0.2952       6.9933     -25.0340       0.4367      -0.0480       0.2880      -0.3247      83.0970     226.3955     230.9168      27.1726       3.1803    3447.3253    1526.6256
 1826.0000       9.7833      -6.9423      -0.6647       6.6007     -25.0527       0.4366      -0.0874       0.2782      -0.3247      95.1567     226.2937     218.6668      28.3737     354.6259    3463.8988    1527.3439
 1827.0000       9.7822      -7.0241      -0.6597       7.1222     -25.0585       0.4365      -0.0926       0.2778      -0.3235      80.7187     226.2565     217.5173      27.4619     353.8347    3477.1205    1528.0722
 1828.0000       9.7813      -6.9329      -0.6618       6.9160     -25.0573       0.4365      -0.0880       0.2779      -0.3249      79.8643     226.2193     218.2337      29.2168     354.3735    3469.2717    1528.7886
 1829.0000       9.7832      -6.9530      -0.5125       6.8575     -25.0563       0.4365      -0.0805       0.2801      -0.3250      82.9034     226.3202     220.4022      28.3548     355.8404    3506.7693    1529.5109
 1830.0000       9.7829      -6.9474      -0.7023       6.9646     -25.0233       0.4365      -0.0881       0.2785      -0.3244      77.9097     226.4429     218.5799      29.2181     354.4746    3428.4448    1530.2274
 1831.0000       9.7826      -6.9746      -0.4233       6.8493     -25.0192       0.4365      -0.0764       0.2826      -0.3238     104.8177     226.5862     220.0075      20.2957     355.3846    3430.4773    1530.9493
 1832.0000       9.7818      -6.9932       0.0447       6.7870     -25.0019       0.4366      -0.0566       0.2873      -0.3236      89.4172     226.6197     226.1910      20.4709     359.6999    3460.3244    1531.6691
 1833.0000       9.7819      -6.9577       0.5873       6.7780     -24.9800       0.4368      -0.0343       0.2916      -0.3234      99.6378     226.6989     233.4457      20.5703       4.7338    3409.2211    1532.3861
