~VERSION INFORMATION
VERS.           2.0   :CWLS Log ASCII Standard - VERSION 2.0
WRAP.           NO    :One Line per depth step
PROD.  Schlumberger   :LAS Producer
PROG.  DLIS to ASCII 19C2-270                          :LAS Program name and version
CREA.        2017/01/08 14:29                          :LAS Creation date {YYYY/MM/DD hh:mm}
DLIS_CREA.  2017-Jan-08 14:00                          :DLIS Creation date and time {YYYY-MMM-DD hh:mm}
SOURCE.     BDN-A1_12.25inch_S2R2_FMI-08-Jan-2017_Main.dlis  :DLIS File Name
FILE-ID.     ConCu_R05_L003Up_FBST                     :File Identification Number
#--------------------------------------------------
~WELL INFORMATION
#MNEM.UNIT      DATA             DESCRIPTION
#---- ------ --------------   -----------------------------
STRT .M      1316.0000       :START DEPTH     
STOP .M      2159.0000       :STOP DEPTH     
STEP .M       1.0000         :STEP     
NULL .          -999.25      :NULL VALUE
COMP .        PT. Pertamina Geothermal Energy          :COMPANY
WELL .        BDN-A/1                                  :WELL
FLD  .        Bukit Daun                               :FIELD
LOC  .        Bukit Daun                               :LOCATION
CNTY .        N-110 M1/18                              :COUNTY
STAT .        Bengkulu                                 :STATE
CTRY .        Indonesia                                :COUNTRY
API  .                                                 :API NUMBER
UWI  .                                                 :UNIQUE WELL ID
DATE .        08-Jan-2017                              :LOG DATE {DD-MMM-YYYY}
SRVC .        Schlumberger                             :SERVICE COMPANY
LATI .DEG     3° 21' 20.38" S                          :LATITUDE
LONG .DEG     102° 22' 17.32" E                        :LONGITUDE
GDAT .                                                 :GeoDetic Datum
#-----------------------------------------------------------------------------
~PARAMETER INFORMATION
#MNEM.UNIT    VALUE                      DESCRIPTION
#---- -----   --------------------       ------------------------
RUN  .          S2R2                     :RUN NUMBER
PDAT .        MSL                        :Permanent Datum
EPD  .C3           0.000000              :Elevation of Permanent Datum above Mean Sea Level
LMF  .          DF                       :Logging Measured From (Name of Logging Elevation Reference)
APD  .M         1748.500000              :Elevation of Depth Reference (LMF) above Permanent Datum
#-----------------------------------------------------------------------------
~CURVE INFORMATION
#MNEM.UNIT   API CODE                                  DESCRIPTION
#---- -----  --------                                  -----------------------
DEPT .M                                                :DEPTH (BOREHOLE) {F10.4}
ANOR .M/S2                                             :Acceleration Computed Norm (vector length) {F13.4}
AX   .M/S2                                             :Acceleration X-Axis {F13.4}
AY   .M/S2                                             :Acceleration Y-Axis {F13.4}
AZ   .M/S2                                             :Acceleration Z-Axis {F13.4}
FINC .DEG                                              :Magnetic Field Inclination {F13.4}
FNOR .OER                                              :Magnetic Field Intensity Computed Norm {F13.4}
FX   .OER                                              :Magnetometer X-Axis {F13.4}
FY   .OER                                              :Magnetometer Y-Axis {F13.4}
FZ   .OER                                              :Magnetometer Z-Axis {F13.4}
GR_EDTC.GAPI                                           :Gamma Ray {F13.4}
HAZI .DEG                                              :Hole Azimuth Relative to True North {F13.4}
P1AZ .DEG                                              :Pad 1 Azimuth in Horizontal Plane (0 = True North) {F13.4}
PP   .                                                 :Pad Pressure {F13.4}
RB   .DEG                                              :Relative Bearing {F13.4}
TENS .LBF                                              :Cable Tension {F13.4}
TVD  .M                                                :True Vertical Depth {F13.4}
#-----------------------------------------------------------------------------
# 
#     DEPT        ANOR         AX           AY           AZ           FINC         FNOR         FX           FY           FZ         GR_EDTC        HAZI         P1AZ         PP           RB           TENS         TVD
#
~A  
# ...
 2130.0000       9.7825      -6.2528      -0.8208       7.5755     -23.8282       0.4443      -0.1411       0.2672      -0.3195      15.9041     224.8863     213.3747      17.4011     351.1472    3623.2707    1753.2099
 2131.0000       9.7831      -6.2408      -0.2712       7.7614     -23.8754       0.4464      -0.1140       0.2810      -0.3248      32.7105     225.3034     223.0319      18.2638     358.2596    3628.6465    1753.9930
 2132.0000       9.7833      -6.3045      -0.3011       6.7484     -23.9920       0.4447      -0.1172       0.2838      -0.3244      35.3529     224.9374     221.9053      17.4822     357.6714    3536.6517    1754.7569
 2133.0000       9.7803      -6.2266      -0.0389       7.0324     -24.0753       0.4418      -0.1047       0.2819      -0.3222      44.2369     224.6833     223.2267      15.7387     336.2025    3493.1355    1755.5174
 2134.0000       9.7834      -6.2457      -0.4038       7.6894     -24.3025       0.4424      -0.1229       0.2755      -0.3218      42.6760     224.6710     220.4278      16.6473     356.7311    3572.1095    1756.3090
 2135.0000       9.7833      -6.2517      -0.8632       7.2494     -23.8352       0.4484      -0.1360       0.2794      -0.3264      35.2653     225.3093     217.9436      23.7171     354.3127    3742.8000    1757.0836
 2136.0000       9.7810      -6.4495      -0.2234       7.8962     -23.2648       0.4462      -0.1306       0.2855      -0.3151      31.6034     225.7624     220.6590      25.4910     356.0601    3736.3532    1757.8608
 2137.0000       9.7846      -5.8669      -0.6014       7.2553     -23.4309       0.4405      -0.1297       0.2751      -0.3155      32.4162     225.7172     220.7771      25.1113     356.1841    3927.6141    1758.6194
 2138.0000       9.7845      -6.1973      -0.5428       7.5963     -23.8396       0.4364      -0.1292       0.2730      -0.3152      41.2950     225.3400     222.6256      23.9878     311.6060    3620.0704    1759.3991
 2139.0000       9.7835      -6.0831      -1.3108       7.4223     -24.2204       0.4333      -0.1578       0.2519      -0.3149      35.1685     225.2385     210.4105      24.2644     348.4634    3629.2886    1760.1777
 2140.0000       9.7838      -6.0913      -1.3664       7.5657     -24.7552       0.4313      -0.1554       0.2497      -0.3151      21.1519     225.3300     209.5360      29.4166     347.7071    3598.8268    1760.9524
 2141.0000       9.7837      -6.1043      -1.2929       7.4874     -25.1436       0.4311      -0.1495       0.2522      -0.3158      22.3505     225.5144     210.1336      29.6688     348.0387    3630.5108    1761.7331
 2142.0000       9.7834      -6.1272      -1.0952       7.2420     -25.3853       0.4317      -0.1347       0.2610      -0.3166      19.3596     225.8165     214.6783      29.6507     351.3698    3581.6772    1762.4944
 2143.0000       9.7831      -6.1343      -1.0375       7.6032     -25.1767       0.4346      -0.1390       0.2588      -0.3160      26.6942     225.8392     213.5968      29.1306     350.4946    3574.9383    1763.2769
 2144.0000       9.7836      -6.0669      -1.3079       7.5700     -25.3587       0.4395      -0.1505       0.2591      -0.3218      70.8869     226.0224     210.8012      27.5913     348.1253    3648.9867    1764.0567
 2145.0000       9.7839      -6.1182      -1.0286       7.5093     -25.5971       0.4402      -0.1384       0.2670      -0.3215      44.0528     226.2493     213.7432      27.4119     350.2582    3684.5584    1764.8290
 2146.0000       9.7833      -6.1331      -0.7630       7.5588     -25.5419       0.4410      -0.1278       0.2724      -0.3224      33.0871     226.0816     216.9526      29.3382     352.9052    3644.0004    1765.6030
 2147.0000       9.7837      -6.1710      -0.5393       7.5468     -25.4174       0.4411      -0.1210       0.2755      -0.3228      33.3394     225.8605     219.1380      29.6740     354.7778    3668.1012    1766.3753
 2148.0000       9.7837      -6.1173      -0.7154       7.5147     -25.0811       0.4413      -0.1316       0.2731      -0.3188      44.5752     225.8968     217.0389      29.1937     353.0970    3653.5340    1767.1568
 2149.0000       9.7841      -6.1046      -0.7075       7.6253     -24.9615       0.4431      -0.1328       0.2752      -0.3221      48.0038     225.8738     217.9011      28.1626     353.7848    3657.7298    1767.9296
 2150.0000       9.7839      -6.1317      -0.7311       7.6302     -24.8558       0.4404      -0.1338       0.2702      -0.3207      45.7376     225.5563     216.8971      29.2184     353.2623    3703.5491    1768.7129
 2151.0000       9.7840      -6.1576      -0.4680       7.5925     -24.7535       0.4370      -0.1214       0.2747      -0.3177      46.6137     225.5712     219.4834      22.0620     355.2762    3677.5547    1769.4853
 2152.0000       9.7834      -6.0736      -1.0294       7.5766     -24.9687       0.4345      -0.1431       0.2612      -0.3161      46.6137     225.7037     213.1865      34.0858     350.2259    3685.6096    1770.2518
 2153.0000       9.7831      -6.0639      -1.0962       7.6006     -25.3546       0.4338      -0.1442       0.2590      -0.3167      46.6137     225.7726     212.8940      34.3701     349.9209    3689.5889    1771.0441
 2154.0000       9.7846      -6.0501      -1.5493       7.4764     -25.4665       0.4341      -0.1634       0.2463      -0.3170      46.6137     225.7617     206.7642      22.9595     344.9954    3757.4939    1771.8051
 2155.0000       9.7839      -6.0290      -1.0986       7.6302     -25.2898       0.4352      -0.1453       0.2595      -0.3147      46.6137     225.8345     213.0392      14.7782     349.9577    3724.6237    1772.5904
 2156.0000       9.7885      -5.9912      -1.0672       7.2451     -25.2920       0.4356      -0.1499       0.2579      -0.3204      46.6137     225.5905     212.4705      13.0406     349.6668    3736.4092    1773.3576
 2157.0000       9.7853      -5.9690      -1.0601       7.6795     -25.5071       0.4345      -0.1475       0.2573      -0.3174      46.6137     225.5064     212.7451       7.0679     349.9213    3326.7513    1774.1404
 2158.0000       9.7852      -5.9668      -1.0593       7.6825     -25.5051       0.4344      -0.1476       0.2573      -0.3173      46.6137     225.5142     212.7738       0.2037     349.9341    2624.9351    1774.9206
 2159.0000       9.7841      -5.9666      -1.0560       7.6816     -25.4910       0.4343      -0.1475       0.2573      -0.3172      46.6137     225.5149     212.8155       0.1933     349.9667    1844.1211    1775.3804
